Latitude,Longitude,Name
41.45743,2.224545,"Particular Euroestrellas"
41.4431103,2.223955,"Bar Bona Tapa 8"
41.4403949,2.2357687,"FRANKFURT ALFONSO XII"
41.4488282,2.2318533,"Escola Llorens Artigas"
41.4500041,2.2505595,"A Vocados Badalona - Rest. Badalona"
41.4563056,2.2292667,"AMAI EVENTOS"
41.446886,2.241716,"Collonut"
41.4496718,2.2474681,"Enrique Tomás"
41.44033,2.245323,"Chiringuito Kailua - Badalona"
41.4394223,2.2286871,"BK EVENTOS"
41.448426,2.242291,"Saona Badalona"
41.45139,2.236612,"LA BASCULA-CANVI 6350"
41.460607,2.227663,"REPARTIDOR LA COLOMENSE"
41.451463,2.223276,"(19) BAR CASA FELIX"
41.444024,2.224084,"BAR DON PELAYO"
41.447798,2.224359,"CASAL D'AVIS LLOREDA"
41.443656,2.247146,"REST. EL PESCADOR"
41.468326,2.241674,"BONAVISTA REST."
41.442773,2.224625,"(19) L'ANXANETA"
41.459483,2.229281,"O' MARULO - RESTAURANT"
41.432484,2.222502,"LA COLOMETA"
41.460607,2.227663,"REPARTIDOR BCN SERVEIS"
41.457369,2.238962,"FRANKFURT NOVA ERA"
41.458978,2.24728,"PEPITO - BAR GRANJA"
41.451743,2.227867,"AA.VV. LLOREDA"
41.441756,2.231307,"LA ROSADA - BAR"
41.444049,2.23141,"LLESQUERIA LA TORRADETA"
41.449363,2.224511,"CAFETERIA SISTRELLS"
41.451479,2.223135,"BAR POTE VERDE"
41.451698,2.221361,"CARLOS - BAR BODEGA"
41.460948,2.228272,"MARKETING BADALONA"
41.433162,2.220235,"CHILE 504"
41.460607,2.227663,"VENTAS AL CONTADO"
41.441779,2.234671,"CIVIT - BAR"
41.439963,2.218877,"ASOCIACION ROCIERA BADALONA"
41.445238,2.240979,"LA MORAL - GRANJA"
41.455968,2.221517,"MARISQUERIA TRIANA"
41.460607,2.227663,"VENTAS AL CONTADO BCN SERVEIS"
41.447606,2.221782,"MARIN - BAR"
41.445607,2.222246,"EL MESON - RESTAURANTE"
41.442773,2.224625,"L'ANXANETA - BAR"
41.450392,2.240226,"OBSESSION"
41.436759,2.218491,"ALIMENTACION BAHAR"
41.468412,2.24049,"EL MENJADOR DE BONAVISTA"
41.451717,2.238719,"FRANKFURT"
41.451717,2.238719,"FRANKFURT COLL I PUJOL"
41.450291,2.250903,"BODEGA CARMENET"
41.452618,2.248275,"HIRUS - RTE. CAFETERIA"
41.460755,2.237164,"LOCAL SOCIAL FUTBOL BUFALÀ"
41.442931,2.224075,"LA GRANJA - BAR"
41.460755,2.237164,"LOCAL SOCIAL FUTBOL BUFALA"
41.458006,2.256667,"ASSOCIACIÓ DIABLES DE BADALONA"
41.460607,2.227663,"REPARTIDOR BADALONA"
41.44166,2.222375,"BARADERO - BAR"
41.440757,2.21588,"CA LA NOE"
41.444049,2.23141,"FARGGI"
41.451575,2.236952,"CHURRERIA - BAR"
41.460607,2.227663,"VENTAS CONTADO LA COLOMENSE"
41.453176,2.22618,"ASOC CULT ANDALUZA TACON DEL DUENDE"
41.441694,2.222841,"BAR JUNIOR"
41.445607,2.222246,"RESTAURANTE EL MESÓN"
41.457004,2.258428,"CERVECERÍA JUST"
41.448426,2.251335,"BIENNAL"
41.460182,2.236695,"CAMP DE FUTBOL DE BUFALA"
41.456882,2.244041,"DUNKEL"
41.477128,2.251492,"CLUB DE TENNIS REST. MAS RAM"
41.448326,2.24967,"CAN FRAI"
41.44955,2.246819,"SFERA GASTROBAR"
41.454921,2.226997,"DELI CREAM"
41.44955,2.246819,"ESFERA GASTROBAR"
41.447851,2.249874,"NERUCA"
41.433627,2.217375,"BAR RESTAURANTE CHINO"
41.450629,2.22257,"DONER KEBAB"
41.477289,2.233915,"ASSOCIACIÓ CULTURAL I ESPORTIVA BOMBERS"
41.436429,2.235048,"SIN ASIGNAR"
41.449984,2.244955,"RESTAURANTS BADALONA"
41.441455,2.233159,"VAN VAN"
41.4407899,2.2355754,"Enjia 7"
41.448675,2.244391,"balcells"
41.45588,2.228908,"Oasis Gastro Bar | Restaurant Badalona"
41.444993,2.24305,"Open mind sl"
41.4586843,2.2268155,"JULIO DARIO"
41.446382,2.23925,"GRUPO CHICHARRITA"
41.46548,2.252337,"Restaurant Brasería Toni Arjona Campo"
41.449438,2.246151,"La Tremenda"
41.443954,2.247534,"Chiringuito MiCandé Badalona"
41.4503427,2.2480206,"Bar Bahia"
41.438405,2.217605,"wang jiao"
41.443641,2.247229,"MONO BEACH"
41.4418055,2.222927,"Bar La Imperial"
41.4353022,2.2194104,"Mis Panas Restaurant"
41.435155,2.21963,"bon area"
41.436597,2.222964,"CASA RUIZ"
41.448806,2.2330144,"Asociación de Vecinos Nueva Llor"
41.452359,2.250726,"L'ESTORP"
41.4483761,2.2421472,"Hakone Badalona"
41.440505,2.21674,"SANT ADRIA VIDAS SALON"
41.4583593,2.2424144,"GAL. BUFALA -  DULCES RAMOS"
41.435021,2.228066,"BAR LA IMPERIAL"
41.4605189,2.2539679,"Full Equip"
41.4526229,2.2315872,"Gym Olimpic 2"
41.4349346,2.2167822,"Magic Body"
41.4423142,2.2172236,"Mercat municipal de Llefià"
41.4408786,2.2453799,"Notris Badalona"
41.4401176,2.2423987,"Pizzeria Notris"
41.4530182,2.221584,"PA DOTGER"
41.4408228,2.227126,"PANNIA CAFE"
41.468809,2.2495904,"BODEGA ALIMENTACION ALEX SUPERMERCAT"
41.4374862,2.2275366,"PESCA SALADA JOAQUIN"
41.4518751,2.2522036,"Delifruit"
41.4309691,2.2321275,"E.S. BADALONA 1 10205 (REPSOL)"
41.4413041,2.2335066,"BK EVENTOS"
41.4515854,2.2465378,"El Bola - Matches & Burgers"
41.440414,2.230256,"*** LA MEDITERRA"
41.4413618,2.2257847,"BAR TERTULIA"
41.445616,2.2437208,"Bufs de farina"
41.44404,2.2305799,"Coffee & Company"
41.446371,2.223687,"BAR LA IMPERIAL"
41.4415766,2.234792,"RIU GASTROBAR"
41.4480076,2.2226828,"bar flor"
41.462437,2.256232,"EDIFICI BCIN"
41.4500722,2.245007,"Boheme - artesans del pa"
41.4456212,2.2447778,"Can Pelat"
41.4497575,2.2511803,"Can Quim Restaurant"
41.458861,2.265134,"XIRINGUITO LA RASPA"
41.448656,2.248392,"L'Antica Pizzeria Da Michele Badalona"
41.455391,2.257626,"Les Pizzes d' herber Badalona"
41.4479026,2.2506315,"Casa Ribeiro"
41.4481227,2.2496358,"Karl's"
41.4402472,2.2376201,"GASTRONOMIA , CATERING I EVENTS"
41.4500182,2.2471199,"Espan's Badalona"
41.4457137,2.2483786,"CATALUNYA FOOD"
41.4332657,2.2248727,"CDO.PORTO"
41.4534693,2.2491921,"Famulus"
41.4402043,2.2357489,"Restaurante Vital"
41.4397813,2.2244048,"LA DONA CAFÃ‰"
41.450635,2.2530666,"Associacio Bicanna"
41.4428441,2.2301386,"Shokolatt"
41.4451953,2.2387267,"Forn De Pa Tot Croissant Croissanteria"
41.4506278,2.2370284,"BALCELLS"
41.451384,2.2322293,"CoffeeShop.95"
41.44404,2.2305799,"Sushiko Magic"
41.4477008,2.2468145,"Restaurant Pantaiberic"
41.4600169,2.2476405,"TAKE AWAY CAPRITX"
41.4580584,2.2205295,"Lar O'Marulo"
41.4482948,2.2462286,"MISTER PAN Mejor tienda 24 horas en Ba"
41.4604334,2.2483202,"CAFETERIA 18.0"
41.449115,2.2454251,"Teikit badalona"
41.4343419,2.2184945,"DOLÃ‡ CAFE"
41.4519549,2.2518382,"DONA FITNESS BDN"
41.44352,2.23875,"DAKAR"
41.4570086,2.2582903,"FORN SANT JUST"
41.441899,2.224433,"Escola Josep Carner"
41.4532415,2.2509072,"CRAE MÂª ASSUMPTA BADALONA"
41.451203,2.2369281,"LILLO PICO  GELATERÃA"
41.4511387,2.2369431,"TELEPIZZA 0967"
41.4777147,2.2319967,"El Molí de Cal Dimoni"
41.4509389,2.2475762,"The Stash Weed Cannabis Club"
41.4511804,2.2478903,"Restaurant italià La Tagliatella"
41.440494,2.23229,"FLECA PANADERIA JOAQUIM RUYRA"
41.4454255,2.2390158,"CAFE 365"
41.4597796,2.2492434,"Estació de Servei Repsol"
41.4532032,2.2507005,"Repsol"
41.4622697,2.2385067,"Fundació Privada Llegat Roca i Pi"
41.4432962,2.238938,"Supermarket(Serveis 361)"
41.4403408,2.2225697,"BAR CAFETERIA 366"
41.457176,2.238853,"FORNS DE PA JOAN FIGUERA"
41.459586,2.2415912,"CENTRAL (W001)"
41.4344736,2.2397468,"Food Truck LACOSTA"
41.431668,2.239069,"PUERTO BAHIA CLUB DE MAR"
41.4470678,2.2326061,"Sports bar"
41.4358336,2.2203219,"Telepizza Badalona Mena  Menjar a Domi"
41.437666,2.240256,"PizzaArt Badalona"
41.448068,2.249456,"I Love Empanada"
41.4560405,2.2584869,"Forn De Pa"
41.4651246,2.2510545,"PANIFICADORA SAN MORI"
41.446613,2.24971,"Curcuma Badalona Indian Restaurant"
41.4620738,2.2406658,"GRANJA (W046)"
41.4585408,2.2624028,"SOHO FIT"
41.4526504,2.2301339,"NELI (G304)"
41.4524508,2.2247197,"Forn de pa i Alimentació"
41.4568232,2.2428934,"CHURRUCA (W002)"
41.442935,2.233135,"ROSTISSERIA AMELI"
41.4483992,2.2416303,"Pizzería Carlos I Badalona"
41.4466511,2.2415894,"Pizzeria Distrito 744"
41.4656929,2.2539124,"BADALONA PADEL CLUB"
41.4379512,2.230514,"RAJA SUPERMERCAT 154"
41.4484574,2.242304,"Timesburg Badalona"
41.4408786,2.2453795,"CURUZZO RESTAURANTE"
41.4403517,2.2355159,"CENTRIC"
41.442793,2.230097,"Descubre La Tapa de Can Daniel"
41.4535917,2.23515,"FORNS DE PA JOAN FIGUERA"
41.4337155,2.2169832,"Forns de pa joan figuera"
41.4571108,2.2428022,"FORN MISTER PAN"
41.43049,2.234199,"CASA DE LA CULTURA CHINA"
41.4333657,2.2263996,"BAR EL PASO"
41.440757,2.21588,"SOWI BURGUER"
41.450651,2.245857,"Hospital Municipal Badalona"
41.440494,2.23229,"Nemesis Tattoo Bcn"
41.453839,2.235221,"FORNS DE PA JOAN FIGUERA"
41.451257,2.222409,"BAR REY"
41.438537,2.226935,"BAR LA IMPERIAL"
41.477096,2.250954,"FOOD TRUCK MAS RAM SPORT CLUB"
41.464125,2.248901,"DIREXIS PADDEL PISTA 17"
41.440757,2.21588,"BAR DAMIAN 2"
41.4413276,2.2457479,"KYSHENKO GYM"
41.46014,2.227597,"REPARTIDOR BCN SERVEIS"
41.448403,2.246395,"EL CAFETÓ"
41.437235,2.220126,"BAR LA IMPERIAL"
41.477137,2.251691,"CLUB ESPORTIU MAS RAM EVENTOS"
41.441521,2.238856,"food truck 2"
41.4413449,2.238956,"Bar wei wei"
41.449015,2.22422,"Cafeteria Sistrells"
41.4447102,2.2391824,"Restaurant Palacio Oriente"
41.456001,2.24313,"BAR ELI"
41.45548,2.22593,"Gastrobar El Mirador"
41.443928,2.240029,"La Leonetta"
41.4393718,2.2202079,"ASOC. CULTURAL ANDALUZA CIUDAD DE B"
41.441339,2.225738,"LES PALMERES BDN"
41.442506,2.224492,"Bar San Salvador"
41.457028,2.244337,"El racó de can tonet"
41.434039,2.218343,"Badalona grill"
41.449485,2.246824,"Restaurant E L E M E N T S"
41.455267,2.225415,"BAR PORT NOU"
41.459665,2.240165,"Bar La Riera"
41.443928,2.240029,"Guingueta Karamba"
41.4433501,2.2460336,"Koliaky"
41.452503,2.256293,"La Bota de l'Aragó"
41.455923,2.221347,"Bar restaurante Deblas"
41.439885,2.223553,"Bar maribel"
41.444386,2.231645,"PIZZA NAPOLI"
41.448107,2.244963,"Talos bar"
41.4513341,2.2269374,"Ca La Fina"
41.4421548,2.2277525,"Bar Felipe"
41.43485,2.229091,"Aupamusic"
41.434814,2.219631,"BK EVENTOS"
41.4482666,2.2480052,"almarge: vins i cuina amable"
41.4437207,2.2473196,"Restaurant El Pescador"
41.4481066,2.2242306,"Casal de Gent Gran de Lloreda de Badal"
41.447925,2.243246,"Ca la Maria"
41.445798,2.236908,"MANJARES DEL MUNDO SL"
41.4298949,2.234791,"VA DE PANS"
41.444641,2.218743,"JAMONES CIURANA"
41.44404,2.2305799,"KURZ UND GUT ''MAGIC''"
41.4489234,2.2343714,"LA CUINETA DE LA MAMA"
41.4446106,2.2414327,"MERCAT TORNER"
41.4535473,2.2490012,"BAR RESTAURANT ELEMENTS"
41.437277,2.220215,"BAR MORENO"
41.453788,2.24808,"ORIGEN CAMPERO"
41.445473,2.248556,"REST. SOTAVENT"
41.455369,2.256399,"REST. CAN VIÑAS"
41.4537463,2.2351654,"PANADERIA J. FIGUERA (PUIGFRED)"
41.443928,2.240029,"PANADERIA J. FIGUERA. (VENTS)"
41.433444,2.216969,"PANADERIA J. FIGUERA"
41.450722,2.245735,"Hospital Municipal Badalona"
41.45696,2.233394,"CAFETERIA CLINIC DEL CARME"
41.450712,2.245957,"CAFET. HOSPITAL M. BADALONA"
41.442793,2.230097,"Shokolatt"
41.4504137,2.2307905,"CASAL D'AVIS (CATALUNYA)"
41.439499,2.214467,"Bar Restaurant El Jardí"
41.4497759,2.2409424,"Associació de Veïns de Coll i Pujol"
41.459874,2.259784,"ENRIQUE TOMAS-MAGATZEM (BADALONA)"
41.454921,2.226997,"ENRIQUE TOMAS (C.C.MONTIGALA)"
41.440741,2.244798,"OSCAR'S"
41.4316,2.235386,"LINEALAB (EXPOQUIMIA)"
41.455369,2.256399,"CAL FIDEUER"
41.4470311,2.2500106,"UN KILO DE PAN"
41.449711,2.247573,"Enrique Tomás"
41.442519,2.216242,"BOCATELLI -PEREZ GALDOS-"
41.4418041,2.2268376,"Frankfurt Badalona"
41.4389266,2.243951,"Talos Playa"
41.438174,2.2221601,"CUENCA - BAR"
41.4520395,2.2476952,"Bar Les Termes"
41.4500096,2.2485686,"KLOUSNER"
41.433687,2.227863,"ROMA - BAR RESTAURANT"
41.441139,2.221604,"Bocatapa Can Manel"
41.443928,2.240029,"Cafeteria Vaixell"
41.443928,2.240029,"MOKA - BAR"
41.4351935,2.2284841,"JOC - BAR"
41.4398114,2.2155117,"Granja Bar Paradis"
41.452892,2.229981,"La Esquina Del Travieso"
41.450955,2.237772,"Bar Granja Selva"
41.448035,2.246831,"Cafè Caracas"
41.439288,2.218715,"cantina del tapeo"
41.455369,2.256399,"Bingo Augusta"
41.450437,2.230786,"Bar Rias Baixas"
41.443928,2.240029,"JULIA´S COVEN"
41.446307,2.2458511,"El Bocata"
41.438174,2.2221601,"VICTOR - BAR"
41.442432,2.236076,"VERTIGO - FRANKFURT-CERVESERIA"
41.449261,2.224026,"LOS ARCOS - BAR GRANJA"
41.4511095,2.2485279,"Gràcia"
41.4406386,2.2311121,"Bar el vecino"
41.437107,2.230164,"CHICO - RESTAURANTE"
41.451876,2.229572,"RAMESH WITH HORSE"
41.437593,2.221774,"Bar Capricho"
41.4584711,2.242743,"Bar Nou Doble Dos"
41.4475174,2.250627,"Made In Sicily"
41.452992,2.221575,"Restaurante Bar las Cañas"
41.442506,2.224492,"Bar Benugar"
41.450613,2.239815,"PALO - BAR"
41.440218,2.223839,"Cafe Bar Florida"
41.440018,2.230283,"Auto Talleres Nou Car S.C.C.L."
41.4492619,2.2415384,"LA CANYA - BAR"
41.4530686,2.2221134,"CHARCUTERIA ISABEL LAFUENTE"
41.441559,2.231955,"Bar La Rosada"
41.4317286,2.237468,"EL RACO DE LA PLATJA"
41.442214,2.230399,"Deportivo"
41.4377561,2.2264784,"CERVECERÍA PRIMO"
41.4704045,2.2527161,"Mamantonia"
41.4462201,2.2400311,"Mambo Club Badalona"
41.4553663,2.2267126,"MÓN-BEER - CERVECERIA"
41.4463978,2.2364544,"Bar Restaurant Los Escudos"
41.436549,2.218361,"Bar Alcazar"
41.4312344,2.2250823,"BAR  GRANADOS"
41.451305,2.249497,"TAPAS RIVEIRO"
41.439043,2.244087,"RESTAURANT LA GALERA"
41.44874,2.247547,"MONTECARLO"
41.439548,2.238712,"JOC WEI BAR"
41.43976,2.229347,"Bar Oasis"
41.4393455,2.228515,"NORMAN'S FRANKFURT"
41.4485347,2.2255431,"ANTONIA - FRANKFURT"
41.461639,2.25502,"LA BRASERÍA DE ANTOÑITO"
41.4320526,2.2363666,"4 CAMINOS - BAR RESTAURANTE"
41.445275,2.243341,"Bar La Mossegada"
41.4545573,2.2363097,"Derika sushi bar"
41.4348804,2.2251681,"ALHAMBRA - BAR"
41.4482318,2.2258767,"AJ TOMAS"
41.445358,2.22083,"COSMOS - BAR"
41.455369,2.256399,"VERSUS - PUB"
41.4563025,2.2186899,"SUNRISE"
41.460887,2.247433,"Can Bayó"
41.440068,2.22652,"Freiduria El Boquerón"
41.4495313,2.2440312,"SALIGO - BAR CAFETERIA"
41.4369039,2.2383571,"E.S. Evolution - Indústria"
41.448981,2.231114,"SWING - GRANJA"
41.4513717,2.238102,"CRISTINA - BAR"
41.46216,2.246408,"El Racó de la Maria"
41.4605244,2.2411675,"Bar Smile"
41.4415726,2.2312524,"La Gran Torrada"
41.4394224,2.2286871,"Bar Restaurante Garbí"
41.4511953,2.2527998,"PRIM - BAR"
41.4489255,2.2430315,"PLAÇA L'ILLA CENTRAL-BAR CAF."
41.438868,2.230895,"AA.VV. CONGRESO - BAR"
41.45276,2.2510922,"Prim99"
41.4533791,2.2352945,"LA PEÑA"
41.4390219,2.2301827,"LOS AMIGOS - BAR"
41.451561,2.253387,"El Rebost d'en Manel"
41.4526107,2.2512318,"SUNSET BADALONA"
41.4601998,2.2427289,"BOTIGA LA PESSETA"
41.4542172,2.2247887,"Bar Granja Reiki"
41.440243,2.232254,"Bar La Amistad"
41.4498785,2.2235706,"BAR CASTILLA"
41.4550879,2.2213911,"Escola Joan Coret"
41.451205,2.22527,"BAR MIRELA"
41.4415539,2.2410562,"PROGRESO - BAR"
41.451734,2.221395,"CARLOS - BAR BODEGA"
41.454451,2.223302,"KIUS - BAR"
41.4491088,2.2307761,"Bar Cervecería SsS"
41.447921,2.249522,"La Bella Istanbul"
41.4415563,2.2401234,"PENYA BLANQUIBLAVA 2002"
41.46341,2.2491358,"Pizzería kebab factory unit -3"
41.454451,2.223302,"LA CANTONADA"
41.4373972,2.227279,"Bar Mercado Sant Roc"
41.4491698,2.2308756,"Bar Tapas El Cañon"
41.451303,2.248737,"Cafeteria El Maresme"
41.4386615,2.2152062,"BAR LA LLUNA"
41.4361535,2.2294189,"TONI - BAR"
41.4454979,2.2353258,"BAR MIGUEL LLEFIA"
41.439993,2.229161,"Quijote bar"
41.4473904,2.2452726,"MENODICIOTTO IBERICA S.L."
41.456819,2.259603,"Can Dani"
41.436443,2.229099,"PARAÍSO DEL CATERING"
41.45608,2.219659,"14 HERMANOS - BAR"
41.463818,2.249052,"Bon croissant"
41.4561683,2.2586286,"PETIT RACO"
41.449537,2.246384,"Restaurante Fígaro"
41.463818,2.249052,"Restaurant Racó de Lloreda"
41.4676218,2.2492919,"RAK TAPAS Y BOCADILLOS"
41.436938,2.230048,"GENNIUS BURGUER"
41.4467997,2.2373113,"MEI LI - BAR"
41.442506,2.224492,"DELICIAS MEDITERRANEAS."
41.435858,2.229602,"COPALATINA - BAR"
41.445239,2.2406861,"BAR PLAÇA NOVA"
41.457118,2.257598,"ASSOCIACIO JUVENIL DEMASIATS"
41.4631118,2.2541046,"Aventura Park Badalona"
41.459446,2.2480591,"PICHICHI - BAR"
41.454565,2.248741,"El Celler de Badalona"
41.4556332,2.2562575,"La Lleskeria 222"
41.4342235,2.2325951,"HUAYE - BAR I RESTAURANT"
41.446059,2.23565,"BAR SABOR UNICO"
41.456893,2.239705,"Bocat- Cafè La Font"
41.4582091,2.2612241,"Can Miquel"
41.435698,2.218863,"BAR SEIDI"
41.4518438,2.2318744,"99 Bar"
41.450502,2.253971,"L'Antillana"
41.4507251,2.2264445,"BAR LA PERLA"
41.451183,2.245759,"CALVINAPI - CAFETERIA"
41.4821149,2.241265,"Berenador de Can Ruti"
41.447425,2.250125,"Frankfurt's Casa Vallès"
41.4411024,2.2385341,"Restaurant Bar Casa Pigueta"
41.439288,2.218715,"LA BLANCA PALOMA - BAR"
41.4333038,2.2184147,"Bar Bbt Otra"
41.449446,2.24363,"Nova Via"
41.4586054,2.250108,"MONTALEGRE - BAR"
41.45048,2.248017,"KLIMA BAR"
41.461189,2.2493377,"LA GRANJA - CAFETERIA"
41.4357103,2.2289427,"SAKI - BAR"
41.442506,2.224492,"BAR POLIDEPORTIVO"
41.434916,2.219986,"Americano bar"
41.452229,2.238331,"PONFERRADA - BAR"
41.442506,2.224492,"Bar La Salut 74"
41.463818,2.249052,"EL CALAIX - CAFETERIA PIZZERIA"
41.439912,2.218909,"BOCAPAM - BAR FRANKFURT"
41.4501141,2.2457134,"SEA PALACE - RESTAURANTE CHINO"
41.4463626,2.2221313,"Can treu"
41.443928,2.240029,"A TODA VELA - RESTAURANT"
41.433289,2.217453,"Grey"
41.4571338,2.2399359,"Bar Xaloc"
41.4499065,2.246494,"BAR TREVOL"
41.440282,2.223975,"Bar Granadino"
41.443928,2.240029,"La Lluna"
41.4390952,2.217645,"Centro Cultural Castellano Manchego"
41.4371713,2.2305202,"SOLEIL"
41.462437,2.256232,"BCIN"
41.442506,2.224492,"My Burg - Badalona"
41.4446325,2.242446,"Pastisseria Comas"
41.4590626,2.2506932,"FINA - BAR BODEGA"
41.434059,2.21799,"Gust Bar Restaurant"
41.4381502,2.2179484,"Restaurante chino Capricornio"
41.4359,2.216701,"EL GRAN CROISANT"
41.4570458,2.2195858,"Frankfurt Costa"
41.4424003,2.2293552,"Braseria La Vaca (Campo de tiro)"
41.451642,2.23902,"BAR BONA TAPA"
41.4524365,2.2383041,"BAR GRANJA EL PASO"
41.4464828,2.2380141,"LOGIC  FITNESS"
41.4403754,2.2436822,"PETIT PORT"
41.4372413,2.2199846,"GABI - GRANJA CAFETERIA"
41.454539,2.2262318,"GRANJA IVAN"
41.459213,2.250507,"BAR LA OFICINA"
41.441214,2.231471,"Cafeteria "92""
41.439288,2.218715,"SKY 2 - BAR"
41.4415844,2.2460717,"The Good Monkey"
41.450362,2.24896,"La Japonesa Sushi Bar"
41.4616,2.25567,"La Nau"
41.443928,2.240029,"Bar Arco Iris"
41.4542499,2.2240932,"PINCHO QUE TE PINCHO"
41.450064,2.2356209,"Cadakes"
41.44844,2.248051,"Granja Verdú"
41.450528,2.248803,"Què s'hi cou"
41.4438128,2.2322821,"La taula de badalona rte"
41.455369,2.256399,"BARDALONA"
41.442855,2.21876,"LA CANTINA DE FRAN - BAR"
41.433727,2.217365,"XIAOPING – BAR"
41.4478125,2.2491815,"ABAD - RESTAURANTE"
41.4485629,2.2475767,"Joan bar"
41.434266,2.21817,"Bar Mediterráneo"
41.448371,2.251596,"L'Antic Cafè de la Rambla"
41.453234,2.229499,"LA FLECA DELS EGEA"
41.447784,2.249166,"El Niu"
41.44618,2.240911,"Bar la Poma"
41.4427059,2.2259353,"TIAKELON - BAR"
41.434848,2.217927,"BAR ROMANI"
41.440909,2.2240789,"Restaurant Ciudad de Oro"
41.437169,2.2348207,"BAR LUISA"
41.4516719,2.2369281,"ROSALES - GRANJA"
41.4407169,2.2241936,"JAIME - FRANKFURT"
41.4513637,2.2528536,"LA CATALANA - BAR GRANJA"
41.444736,2.240784,"Restaurant Jordi"
41.447,2.248601,"COSTILLO - BODEGA"
41.433593,2.216827,"Restaurant la Paradeta"
41.455369,2.256399,"SENSE NOM - BAR RTE."
41.4515456,2.2378696,"Bodega castillo"
41.438668,2.218303,"Bodega JJA"
41.442506,2.224492,"CAN GABELLA - BAR"
41.4387534,2.2308429,"LA CARACOLA - BAR"
41.443928,2.240029,"VIA BAETULO"
41.450716,2.245058,"Raíces"
41.4426404,2.2260304,"PUNT URBA"
41.4399087,2.2301874,"TORTOSA - FRANKFURT"
41.4403754,2.2436822,"AROMA KAORI ( PORT)"
41.448191,2.24954,"Karl's"
41.435858,2.229602,"NOEMI - BAR"
41.44168,2.22112,"ALIMENTACION LONDRES"
41.461686,2.247691,"Contamos Contigo"
41.439288,2.218715,"Can Gallego"
41.447379,2.250504,"Frankfurt Parera"
41.429957,2.22628,"Bar Jalón Retro"
41.445191,2.241757,"La Masia de la Xesca"
41.430131,2.224116,"LA CANTONADA DE FRAN"
41.447375,2.248635,"Antic Cafè del Mar"
41.4744653,2.2554543,"PETANCA POMAR"
41.4495423,2.2298549,"EL RACÓ DE L'AMALIA I L'ARTUR"
41.438733,2.243838,"Pizzería San Marino"
41.444873,2.234367,"OXUGO - BAR RESTAURANTE"
41.451001,2.250976,"La Figuera Restaurant"
41.4516934,2.2380259,"SERRANITO - BAR"
41.476638,2.234084,"Rubiales bar restaurante"
41.468764,2.240966,"El menjador de bonavista"
41.436794,2.225944,"Bar Restaurant Buenos Vecinos"
41.462627,2.2487224,"ELISABETH - BAR GRANJA"
41.4526571,2.2363505,"Bar Frankfurt Sant Crist"
41.4461723,2.2410895,"VILLAGE (DÖNER KEBAB)"
41.440815,2.219966,"AMORETTYS 3 - BAR"
41.440815,2.219966,"Recreo"
41.439288,2.218715,"LA TASCA DEL BARRI"
41.45895,2.247306,"PEPITO - BAR GRANJA"
41.4303084,2.2243153,"Bar Los Cazadores"
41.4571937,2.2428206,"Coaliment"
41.462464,2.2455116,"CLUB PETANCA AM.T.LA FONT"
41.452235,2.236466,"EL TROPEZON - BAR"
41.439288,2.218715,"VERIN - BAR"
41.4357091,2.2368498,"INDUSTRIAL - RESTAURANT"
41.468326,2.241674,"RESTAURANT BONAVISTA"
41.43951,2.222315,"INSA - BAR"
41.443518,2.22546,"Corre que se Acaban!"
41.437509,2.230882,"LA PANTERA TAVERNA"
41.452593,2.2366998,"CUNA DEL GENIL - BAR"
41.44755,2.238098,"Gong Bar Fu"
41.449796,2.244627,"Kebab Turca"
41.4577474,2.2471646,250 - GRANJA FRANKFURT"
41.4480919,2.2472131,"BARINKO - BAR"
41.4631894,2.2496336,"GINES - BAR"
41.443725,2.2195242,"ACUARIO - BAR"
41.439653,2.229513,"Bar Costa Del Sol"
41.445614,2.238602,"CAFÉ BAR L'ESPAI BDN"
41.4483512,2.2380255,"BADAKES - BAR"
41.467579,2.253549,"BAR KM"
41.4480377,2.2470986,"ARACELI - FORN CAFETERIA"
41.4455879,2.2359385,"RIZOS - BAR"
41.4391973,2.2163667,"CASA CERVERA"
41.4360665,2.2165833,"LA TABERNA CASTELLANA"
41.4595186,2.2422128,"Gimnàs Independència Sl"
41.4616863,2.2418164,"Granja Bar"
41.4409777,2.229536,"PITU - BAR"
41.4317396,2.2247233,"FANGLI - BAR"
41.440828,2.22264,"Bar Girasol"
41.4426061,2.2234124,"Sushi Salon"
41.468067,2.248102,"BAR PETANCA SAN JORGE"
41.45954,2.242285,"RESTAURANTE DICLAU"
41.449126,2.248263,"Can Teixidó"
41.4342119,2.241101,"Marina palace restaurant xines"
41.443518,2.22546,"Bar Sant Mori"
41.445206,2.237853,"KA-JUAN"
41.4550023,2.2557483,"Restaurant Dues Portes"
41.444379,2.2411402,"Bar Granja "El Mercat""
41.457774,2.242463,"BAR ANIA"
41.439288,2.218715,"CASA PRESA"
41.443928,2.240029,"BONNA BOCA"
41.4558365,2.2446282,"EL CALIU DE BUFALA"
41.4437356,2.226371,"J&V TAPAS Y MUCHO MÁS ...BAR"
41.453643,2.234588,"GRANJA ANA"
41.4469172,2.2438197,"VILACLARA-AUTOSERVEI ALIMENT"
41.4343093,2.2162436,"Bar Extremeño"
41.454166,2.223617,"La Vendetta"
41.4583253,2.2475856,"EL CAFE - BAR"
41.448481,2.237361,"EL CAFE DE LYON"
41.4580326,2.2481512,"L'antic Rebost"
41.433218,2.220126,"BAR BOLIVIANO"
41.454402,2.225741,"OCCO BAR RTE."
41.45696,2.233394,"CLUB PETANCA MONTIGALA BATLLORIA"
41.434179,2.223822,"BAR MIGUEL"
41.4408103,2.2220566,"Bar Acuari"
41.446874,2.22347,"Bar Los Cazadores"
41.438824,2.217226,"BAR MORALES Y MUÑOZ EL MANCHEGO"
41.450199,2.224877,"La Cuina De Zaira"
41.4774207,2.2338184,"CA L'ARTILLER"
41.4670198,2.2402921,"CAFETERIA 3 DE NOU"
41.447746,2.229626,"Bar Andaluz"
41.4551609,2.2199239,"Bar Mi Casa"
41.4478459,2.2468671,"CAFÉ DEL MERCAT MAIGNON"
41.4382321,2.2237799,"PROSPERO - BAR"
41.4503247,2.2536492,"Hotel Miramar Badalona"
41.4524392,2.2281708,"Bar Cele"
41.445523,2.237671,"Bar Busquets"
41.439388,2.220782,"VERIN - FRANKFURT"
41.4585798,2.2438648,"EL JARDI - RESTAURANT XINES"
41.451217,2.246603,"CHE BONTÁ"
41.439288,2.218715,"LA OFICINA -  BAR"
41.4325518,2.2281568,"FAMILAR"
41.4517388,2.2438644,"EPOCA - CAFE BAR"
41.458381,2.236208,"LA CIENCIA"
41.444899,2.241419,"Badamar"
41.461508,2.241763,"FORN DE PA LIBERTAD"
41.461338,2.2416155,"EL BRUC - BAR"
41.45701,2.242775,"MISTER CAFE.ES - BAR"
41.4468432,2.2486262,"EL GROC CAFÉ VERMUTERÍA"
41.4540524,2.2189348,"Doner Festival Pizzería | C/Sicilia16"
41.456867,2.258168,"Restaurant Les Banderes"
41.4541794,2.2365029,"XECLA - FRANKFURT"
41.452047,2.228118,"Bar Lloreda"
41.4546619,2.2241697,"REHAN PANADER?A CAFETER?A"
41.456027,2.258259,"Bar Milari"
41.449395,2.246909,"CAFETERÍA LA LLUNA"
41.442649,2.234571,"Restaurant Petit Marquina"
41.454696,2.247755,"ECLIPSE - BAR"
41.4489234,2.2343714,"LA PARADETA - BAR RTE."
41.4466124,2.2236212,"Bodegas Jumi S A"
41.458381,2.236208,"Capricho Asador"
41.45701,2.242775,"SUPER COALIMENT"
41.4556768,2.2287807,"CERVECERIA LA CAÑA"
41.457257,2.239161,"Ibèric Degustació"
41.44767,2.246367,"el cafe dels arbres"
41.454244,2.248179,"PEPE - BAR"
41.446682,2.232387,"BAR CERVECERIA ROLDAN"
41.453254,2.256353,"El Racó de la Lola"
41.446004,2.219961,"LOS GEMELOS - BAR"
41.455338,2.22849,"TAKESHI"
41.4341022,2.2212855,"BAR DEL MANUEL"
41.4437076,2.2200663,"BAR LOLI Y MARLON"
41.437354,2.223285,"J Y G - BAR GRANJA"
41.4522078,2.2294218,"BAR PEDRO"
41.460473,2.248485,"CHIRINGUITO PARADIS"
41.4532948,2.2564148,"ROSELL - BAR"
41.4365222,2.2239691,"Campo de futbol badalona sud"
41.463818,2.249052,"HOGAR PENSIONISTA - BAR"
41.437433,2.223235,"Granja - Bar Els Molins"
41.448505,2.226292,"Bar Los Canarios"
41.457748,2.2412973,"Lendi2"
41.434611,2.219411,"Frankfurt Baetulo"
41.434097,2.216011,"Bar Cáceres"
41.438514,2.217249,"ALINA SUPERMERCAT"
41.442506,2.224492,"EL TEIATRU"
41.4616241,2.2385835,"El 9 Raco"
41.440638,2.236608,"Bar Restaurant El Port Nou"
41.453894,2.223295,"EL PARQUE BAR RESTAURANT"
41.446682,2.232387,"ASSOCIACIO ESPORTIVA PERE GOL"
41.45914,2.2432045,"CLUB PETANCA MONTIGALA"
41.4495,2.228,"BAR MIRELA"
41.451588,2.2274519,"LA GAVIOTA - BAR FFURT."
41.4508199,2.2541063,"Bar L'espiral"
41.4531361,2.2226455,"Restaurante La Cascada"
41.4363154,2.2221883,"Bar Playa"
41.451628,2.229624,"Bar la Tía costeña"
41.4523741,2.250701,"Estrop"
41.455829,2.220661,"Bar Casa Toni"
41.450307,2.2482652,"Botànics Badalona"
41.4368255,2.2173933,"CLUB PETANCA TRAFALGAR"
41.456464,2.2574693,"CASTELL DEL DRAC - PARC INFANTIL"
41.4525055,2.2353892,"LA VENTA - BAR"
41.453234,2.229499,"Centre Cívic La Colina"
41.435479,2.228605,"LAS HERMANAS"
41.4541277,2.2350708,"Bar El Vaixell 2"
41.4570086,2.2582903,"MARI FAMILIAR- FRANKFURT"
41.4579495,2.2412471,"Cerveceria Robert 2"
41.4526755,2.2327419,"La tapita bdn"
41.4403754,2.2436822,"BAR CERVECERIA DUAL"
41.4504541,2.2375322,"BAR TROYA"
41.4424808,2.2265684,"sucobar Habana"
41.456826,2.241605,"EL CAFÉ DE LA RIERA"
41.4514087,2.2496331,"Pub Ñoña"
41.4371482,2.2348779,"SUPER TORTOSA"
41.454388,2.225354,"Restaurante A Muralla de Lugo"
41.4552764,2.2254182,"BAR LA TASCA DE CAN CINTO"
41.446627,2.241455,"CADILLAC - BAR"
41.4576171,2.2504535,"C.F. BADALONA"
41.458368,2.243249,"Restaurante Cuinoteca"
41.434872,2.225247,"EL TACO - FRANKFURT"
41.455641,2.223946,"El Rebost de Montigalà"
41.4513584,2.2496669,"El Mercat"
41.4516887,2.2389765,"Bar Pica - Tapas"
41.464309,2.2503636,"MARI Y NANDY - FRANKFURT"
41.4507653,2.2532982,"Restaurant Xinès Àsia"
41.451474,2.236622,"Frankfurt 57"
41.4509691,2.2376204,"JONA BAR"
41.4622901,2.2398964,"PUNT DE TROBADA - BAR"
41.435768,2.214288,"EURO- BAR CAFETERIA"
41.453234,2.229499,"Cerveseria Etimoé"
41.452413,2.227654,"Bar Motril"
41.4421584,2.2212849,"BAR EL JARDI"
41.4422177,2.2165383,"CAN MANEL BUFFET"
41.446965,2.241722,"BALSAMIC GASTROBAR"
41.454453,2.2466025,"MAESTRO NICOLAU - BAR"
41.451553,2.236347,"SANTO CRISTO - BODEGA"
41.4343604,2.2158941,"MODESTO - BAR"
41.451204,2.249822,"El Petit Ca L'olives"
41.4511078,2.2333586,"BAR SOLERA"
41.4510103,2.2468478,"MICACO'S - COCTELERIA"
41.439729,2.223684,"Viruta"
41.447509,2.22677,"Bar Xamfrà"
41.443633,2.235842,"Bar Haoli"
41.460458,2.252669,"Restaurant Volcànic"
41.4357506,2.2189332,"Bar Casablanca"
41.438193,2.220157,"Bar Satisfecho"
41.4582011,2.2501771,"La Mirada Can Boni Bar Cafeteria"
41.436298,2.21837,"EL POLLÓN - BAR"
41.442518,2.223363,"AA.VV. JUAN VALERA"
41.4492949,2.2414526,"LA CANYA - BAR"
41.4328481,2.2256387,"BAR BINGO"
41.4386946,2.2211211,"Bar Natzaret"
41.4521932,2.232709,"BAR CA L'ARNAU"
41.434519,2.2358974,"NOGAL"
41.4541266,2.247882,"GRANJA LEO"
41.437954,2.22128,"Bar La Union"
41.432453,2.235559,"Restaurant La Cantineta"
41.4618256,2.2406349,"Bar Restaurant Avenida"
41.435858,2.229602,"REST. WANG JIAO WAN"
41.4381187,2.221185,"Los Amigos"
41.454289,2.248163,"Restaurante Marina"
41.440357,2.2164,"ELS ANGELS"
41.4449686,2.2219069,"CAN MIGUEL - BAR"
41.4326848,2.2281934,"KE3"
41.436759,2.216573,"LA BONA TAPA - BAR"
41.4573629,2.2395494,"ELS VENTS (ENTREPANS I MÉS)"
41.4531252,2.2429719,"Bar Quinta Elvira"
41.450236,2.250875,"Cristina Guillén Selecció de Vins"
41.4502237,2.2474368,"El Círcol"
41.4511415,2.246468,"SANT JORDI - PANADERIA"
41.452992,2.221575,"SPORTING - BAR"
41.450138,2.247355,"Bar Serra"
41.437019,2.231425,"NAVAS - BODEGA"
41.463818,2.249052,"PICA TAPA - BAR"
41.4382596,2.2329746,"ESCOLANO"
41.45086,2.251645,"Cuinem Rostisseria"
41.445276,2.243772,"Moments cerveseria"
41.4448141,2.2417007,"AROMA DE CAFE"
41.455216,2.250604,"La Trobada Granja Bar"
41.4454578,2.2393317,"EL CAFE DEL METRO"
41.434456,2.218739,"MATEW'S - BAR"
41.4425111,2.2336608,"JUVENTUD - BAR CERVECERIA"
41.443943,2.226262,"Bar Africa"
41.460293,2.248267,"LA CARMANYOLA - RESTAURANT"
41.447544,2.250807,"Cor de Marina"
41.4505433,2.2258195,"GRAN PODER MACARENA - BAR"
41.448369,2.224885,"La Cova Jove"
41.461065,2.240392,"EL RACÓ DE CAN TONET - BAR"
41.4503411,2.2475937,"La Piccola Roma Badalona"
41.463818,2.249052,"APATS & TAPAS"
41.4502078,2.2333343,"Bar Frankfurt Kelian"
41.4549886,2.2355887,"Bar Can Manel"
41.478664,2.237209,"TRANSPORTES URBANOS Y SERVICIOS GENERA"
41.4462322,2.2320992,"FORN DE PA SALVADOR"
41.462917,2.249778,"La Martina Tennis Badalona"
41.449209,2.251935,"Ca la Tina restaurant"
41.4527049,2.2309109,"ENCUENTRO - BAR"
41.4676107,2.253548,"RUIZ - BAR"
41.449299,2.229172,"37 - CAFE BAR"
41.465334,2.252032,"Can Toni"
41.4350618,2.2265674,"Asociación de Vecinos Barri Maresme"
41.4500819,2.2508567,"KANONGE-50"
41.459249,2.249341,"Bar Granja Caliu II ü"
41.4487591,2.2331824,"EL ESCAQUEO - CAFETERIA"
41.447314,2.249708,"Cal Tate"
41.443928,2.240029,"MENORCA"
41.453234,2.229499,"SCHNAPS"
41.4473819,2.231461,"EXTREMADURA - BAR"
41.443868,2.241664,"Ca la Berta"
41.4409184,2.2254723,"Horno la Salud S. L."
41.443928,2.240029,"TOT CHARTER"
41.451453,2.245408,"Badamola"
41.4531786,2.2372525,"KARPI - GRANJA"
41.451193,2.22625,"Bar La Bodegueta"
41.4529935,2.237468,"Bar americano"
41.440323,2.245021,"ALTRE MAR DE TAPES"
41.447332,2.230323,"GRANJA CAN MARIN"
41.4458804,2.2387111,"DEGUSTACION ARGUDO"
41.46061,2.2539,"Cuina de la Iaia de Badalona"
41.449502,2.232637,"Bar Manhattan"
41.463818,2.249052,"LA GRANJA - BAR FRANKFURT"
41.446758,2.249848,"Baires"
41.4690058,2.2420452,"Vencafesa"
41.4516883,2.2553168,"Splash Badalona"
41.44982,2.23262,"CONGOST - BAR"
41.4435821,2.2262597,"LAIA BAR"
41.444093,2.240602,"Donosti"
41.447351,2.250206,"EL CAFE DEL RACÓ"
41.467538,2.233189,"Restaurant L'Oliva"
41.442901,2.217436,"Bar Bodega Lentejil"
41.4495907,2.2442284,"LOUNGE BAR BOTTOM'S UP"
41.4499469,2.2336058,"IBERIC I MES - BAR"
41.452078,2.232614,"Granja Larrosa"
41.446665,2.249625,"L'Olla de Grills"
41.444054,2.22183,"BAR RALLY"
41.4460529,2.2395543,"ASSOCIACIÓ DE COMERÇ CENTRE I PROGRÉS"
41.447404,2.24244,"Iceberg 2001"
41.4496441,2.2339949,"FRANKFURT BSB"
41.442506,2.224492,"Bar cervecería Oscar"
41.440598,2.226573,"Portal de Cocora"
41.447671,2.243907,"Bar Fimon's"
41.441214,2.231471,"El Punt"
41.4499469,2.2336058,"PEÑA BARCELONISTA DE LLOREDA"
41.437729,2.2154912,"Camp de Futbol de Llefià"
41.4466022,2.23298,"C.F. Sistrells"
41.45068,2.253473,"Grillats Badalona"
41.4588004,2.2612511,"Estraperlo Club del Ritme"
41.4336885,2.2177218,"Las Tapas"
41.453296,2.222928,"ALQUIMIA - FRANKFURT"
41.438737,2.217828,"CELAYA - GRANJA"
41.4496441,2.2339949,"FRANKFURT"
41.454887,2.257681,"LA BONA ONA CAFE RESTAURANT"
41.4688075,2.2495976,"LOS AMIGOS - BAR"
41.446507,2.24104,"BAR PARALELO"
41.442404,2.218516,"Bar Montaña"
41.44037,2.230243,"binhaiwan"
41.445595,2.220735,"ASIA ALIMENT"
41.451935,2.246237,"Domus baco"
41.454078,2.22812,"HNOS SÁNCHEZ"
41.4492413,2.2292406,"Don Jarra Bar"
41.4474858,2.2455941,"Cafeteria La Plana"
41.4533123,2.2199457,"Frankfurt's"
41.4588144,2.241858,"SARAY' S - BAR"
41.450293,2.247549,"El Rum Rum Gastrotaberna"
41.44779,2.24026,"SUSHI BAR SOLÀ"
41.461153,2.2433979,"EL MICO GOLAFRE"
41.453234,2.229499,"Frankfurt El Corner"
41.4422579,2.2258406,"DE LA SALUD - BAR"
41.4754203,2.2355683,"La Bolera"
41.435699,2.215475,"BENAVENTE - BAR"
41.4619803,2.240965,"Brut Nature"
41.4475563,2.2252239,"Bar Caritg"
41.443776,2.23515,"Soriano Bar"
41.4439194,2.2323695,"PEÑA - BAR"
41.435858,2.229602,"Bar Santa Cruz"
41.4388567,2.2254425,"ALIMENTACION JUAN VALERA"
41.447741,2.23304,"CAN DANIEL - BAR"
41.453234,2.229499,"XAMPANYET - FRANKFURT"
41.4623629,2.2405012,"CA LA PAQUI"
41.455369,2.256399,"INEDIT"
41.4489658,2.2336755,"BAR GRANJA 2018"
41.4328422,2.2201884,"ACUARIO - BAR"
41.463818,2.249052,"CASAL D'AVIS"
41.451965,2.251848,"Tres Mil 9"
41.461141,2.241239,"Bar Lendi"
41.4486974,2.2445062,"Bar Santana"
41.455369,2.256399,"LA TABERNA"
41.4406849,2.2311618,"JR - CERVECERIA"
41.450057,2.250728,"Bertran"
41.443928,2.240029,"BOCATELI 1"
41.4544275,2.2275332,"CAF BAR MALIA"
41.4332066,2.224858,"Los 4 Ases"
41.4419948,2.23436,"GOMEZ - BODEGA"
41.4499367,2.2505863,"L' ERA - BAR"
41.450912,2.247542,"Restaurant Quipagamana"
41.4467696,2.2413354,"Vins J. Carreras"
41.455369,2.256399,"Bar Can Joan"
41.451966,2.247213,"Il Caffe Di Luca"
41.44169,2.2265042,"Churreria Bar Rodríguez"
41.4486162,2.2337215,"Bar la casa"
41.4544746,2.2495395,"AUTOSERVEI JAUME"
41.447577,2.244936,"'Cake' patisserie"
41.4564068,2.2606832,"NIni Cerveseria"
41.449264,2.249681,"Bar Torras"
41.463475,2.243052,"Escola Bufalà"
41.439189,2.240487,"EL CAFE D'EN MAGÍ"
41.44494,2.236735,"TABERNA EL SIFÓ"
41.4335503,2.2249203,"Bar La Cabana"
41.455369,2.256399,"Caruso"
41.4600808,2.2424588,"LEVANTE - BAR"
41.439288,2.218715,"Bar Sort"
41.4594955,2.2297575,"O'Marulo CattGremi"
41.4503696,2.2512228,"FLECA GISBERT"
41.4546018,2.2231778,"MIRI'S BAR RESTAURANT"
41.455864,2.241863,"CASA RIERA - BODEGA"
41.461309,2.248327,"HERMANOS MATAS - BAR"
41.455369,2.256399,"INEDIT"
41.4415688,2.2405995,"PLAYGROUND - BAR"
41.468916,2.249558,"BODEGA ALIMENTACION"
41.4548159,2.2228908,"PIZZERIA GAS"
41.4480709,2.2238558,2004 - BAR GRANJA"
41.4389266,2.243951,"SEA YOU BADALONA"
41.4597893,2.2397444,"Pizzeria La Bella Venezia"
41.4475603,2.2469702,"El Jardín"
41.440207,2.232557,"Bar Boxes"
41.440521,2.231294,"RECO D'EN PAPU"
41.443928,2.240029,"LOS ANCARES"
41.4434504,2.219212,"CAFETERIA-FRANKFURT TONI"
41.440402,2.2320917,"AA.VV. JOAQUIN RUYRA"
41.443928,2.240029,"Bar Restaurant El Castell"
41.445298,2.240829,"Cooperativa La Moral"
41.4372435,2.226962,"TRIBULET - BAR"
41.4435294,2.2412162,"VA DE BAR"
41.445593,2.24011,"La Viena Blanca | Badalona"
41.442465,2.217405,"Bar Elvis"
41.4604597,2.2485522,"XIRINGUITO IBIZA"
41.456904,2.243656,"FORN DE PA DAUDI"
41.4416,2.239071,"Cafè - Bar La Cova"
41.443302,2.241647,"La Cuina de la Teresa"
41.4405207,2.2434199,"CAFÉ BAR LE PANAME"
41.439288,2.218715,"PLANAS - BAR"
41.45219,2.243928,"Yoüme Sushi - Badalona"
41.448335,2.251557,"L' ONADA"
41.439938,2.237796,"CHEF AMOR BAR"
41.4515683,2.2303271,"FORN DE PA LIONESA"
41.4560469,2.2585638,"KEBAB FACTORY by FRANCESCO"
41.4578682,2.2431565,"Bar Plaza"
41.455369,2.256399,"Famulus"
41.4567614,2.2441024,"TUGA - BAR"
41.444054,2.22183,"Bar LA AMISTAD"
41.4598583,2.2400501,"Bar Alicia"
41.4477081,2.2313666,"Juventud"
41.4403884,2.2453722,"LA GUINGUETA - CHIRINGUITO"
41.4372435,2.226962,"PETIT POCHOLO"
41.4438942,2.2415128,"CA L'EVA"
41.44854,2.245673,"Cafè Milan"
41.4422934,2.2339258,"LAS VEGAS - BAR"
41.449705,2.251202,"MALPARITS"
41.4521121,2.2504625,"BUFET DE LA PILAR"
41.441752,2.234722,"santarita bar restaurante"
41.4414255,2.2280419,"PETANCA LA SALUD -BAR"
41.44096,2.242344,"Bar Velez Rubio"
41.442322,2.236658,"XAIKA - BAR"
41.454155,2.257977,"FORN DE PA IRIS"
41.451485,2.255156,"LEBO"
41.4589563,2.2418093,"CAFETERIA PASTISSERIA AMAT"
41.455369,2.256399,"BUNKER"
41.440946,2.245558,"Notris Badalona"
41.4586149,2.2649653,"E.S BP BADALONA C- MITJORN"
41.455369,2.256399,"KELOKÉ DISCO CLUB"
41.445442,2.240615,"Bar La Caña"
41.4459207,2.2477261,"FIMON´S II - BAR"
41.444187,2.219171,"3 HERMANAS-BAR"
41.4573207,2.2428296,"AUTO MOTOR INDEPENDENCIA"
41.449365,2.246051,"SCHNAPS DEL CENTRE"
41.446157,2.240614,"Restaurant Moll Vell"
41.4609243,2.2419144,"CORDOBA - FRANKFURT"
41.440343,2.23738,"WAI TING - BAR"
41.4538434,2.2498472,"MÓN BOCA"
41.455369,2.256399,"ESTACION BADALONA"
41.4487537,2.2445975,"FORN DE PA VILARDELL"
41.439029,2.2300621,"CRISMIRA"
41.4401141,2.2326969,"VIGOROSO - BAR"
41.4386534,2.2310031,"HELADERIA CHURRERIA BETTY"
41.442793,2.230097,"LA TANGANA"
41.4488609,2.2379383,"EL MOLINO"
41.4395881,2.2253221,"CARNISERIA HALAL"
41.445623,2.244781,"Can Pelat"
41.452756,2.221839,"CLUB PETANCA CARPI"
41.43676,2.2223166,"Infred"
41.453069,2.23554,"BAR CAFETERÍA GABI"
41.446018,2.244228,"Restaurant Toni Tapia"
41.4542039,2.2220045,"Asociación de Vecinos Fondo Sistrells"
41.4380858,2.217994,"La jarta"
41.442793,2.230097,"DULCE DISEÑO"
41.4591492,2.2417467,"BAR FLY"
41.444935,2.244986,"Bar Sol"
41.452809,2.250961,"Bar 1886"
41.463818,2.249052,"EL CELLER DE CAL JOAN"
41.4447314,2.2406669,"MEDITERRANEO"
41.455369,2.256399,"Bar roca i pi"
41.435911,2.214526,"BDN - BAR"
41.4572039,2.242511,"SOWI"
41.4527602,2.2373748,"KING BAR"
41.441551,2.240597,"Aqui Te Espero"
41.445697,2.248346,"Hippie Coffee"
41.444983,2.244773,"Bar La Iglesia"
41.4399737,2.2327841,"Bar Asador El Rincon"
41.441942,2.220946,"Bar Mireia"
41.44817,2.243494,"Meila II"
41.444054,2.22183,"PROXIMA"
41.4412409,2.2424955,"Restaurant Can Mario's"
41.4535457,2.2356867,"Bar Kumhara Almuerzos"
41.4523478,2.2378376,"ABELLAN - ALIMENTACION"
41.4563597,2.2602207,"Cerveceria La Torrada"
41.439043,2.244087,"LA FRESQUETA - CHIRINGUITO"
41.4530974,2.2488672,"Bar Celler del Pernil"
41.4612279,2.240982,"BAR GOMIZ"
41.4473037,2.2445407,"CASAL ANTONI SALA I PONT"
41.45247,2.256253,"1913"
41.448112,2.244719,"Sonrisa Bar & Restaurant"
41.444054,2.22183,"KIKE BAR"
41.4529024,2.2220122,"REIXAS - BAR"
41.439787,2.21501,"Bar Galícia"
41.44168,2.22112,"EL RACÓ - BAR"
41.4542237,2.2237048,"Restaurante 6 Portas"
41.442268,2.217354,"Olimpic Bar"
41.443928,2.240029,"Pipa 5 restaurante"
41.434359,2.218935,"Crack bar"
41.444678,2.219146,"AFRICA - CAFE BAR"
41.4407099,2.2420105,"MARITIM - BAR"
41.4417218,2.2174419,"LUNA - PANADERIA GRANJA"
41.4354608,2.228623,"MELLADO - BAR"
41.4463675,2.2423044,"Restaurante Cambalache"
41.451354,2.249026,"Nuevo Aroma Kaori"
41.450858,2.246629,"Bar Frankfurt"
41.45511,2.227655,"BAR SIGLO XXI"
41.4613803,2.2415763,"Bar Papito"
41.441975,2.2201703,"SANT ANTONI"
41.438824,2.217226,"AVENIDA - BAR"
41.4314779,2.2241251,"FORN DE PA DE VALLE"
41.448564,2.247628,"Bar Can Joan"
41.4400467,2.2241232,"Papeleria La Dona"
41.432307,2.217385,"Granja Ca la Tere"
41.4538499,2.253297,"Can Mercader"
41.442239,2.236,"NO TENGO EL XIXI PA FAROLILLOS"
41.4497016,2.2476778,"Forn Bertran"
41.445991,2.244965,"SANT PEP - BAR"
41.456011,2.2326126,"CF BADALONA"
41.4494254,2.2494696,"Badalona Cultura, Sl"
41.4428587,2.2242105,"LA GRANJA - BAR"
41.449765,2.247565,"Frankfurt's Casa Vallès"
41.442506,2.224492,"D'REY CANELA"
41.438921,2.2218,"EL EMIGRANTE - BAR"
41.4415293,2.2170102,"DAMIAN 2"
41.450674,2.24807,"El Cafè de les Antípodes"
41.4434556,2.2356828,"CAN CANALES - BAR"
41.446833,2.241707,"Collonut"
41.4404349,2.2373545,"GALLART - BAR"
41.446953,2.2418758,"restaurante japonés MIRAGE"
41.450563,2.2243799,"LA CANTONADA ROSTISSERIA"
41.4402472,2.2376201,"GASTRONOMIA , CATERING I EVENTS"
41.4383817,2.2168502,"Somni d'estiu bar"
41.4447781,2.24154,"BAR ROSA"
41.455369,2.256399,"LES DELICIES - RESTAURANT"
41.453234,2.229499,"Restaurant Jocri"
41.455138,2.244377,"Centro Aragonès De Badalona"
41.455369,2.256399,"Magi bar granja"
41.4421297,2.2364887,"BAR PICNIC D´OR"
41.4592725,2.2439074,"LA COVA DEL LLOP"
41.4414356,2.2223654,"ALPUJARRA - BAR"
41.4360185,2.2296398,"Ca la Carme"
41.441831,2.221361,"LA CRISIS - CLUB PAJARIL"
41.4393967,2.2232204,"BAR EL MESON"
41.4415035,2.245995,"ORIGEN BEACH"
41.458048,2.2626161,"TITUS - CARPA"
41.438558,2.233101,"Bar La Parrilla"
41.459905,2.2614567,"Espai Titus"
41.4420749,2.2283985,"Bar India"
41.453234,2.229499,"BAR REST. MAY"
41.4371667,2.2272471,"CAFETERIA GRANJA MIREIA"
41.4519217,2.249346,"LA TARANTELLA"
41.452231,2.25162,"Baretu"
41.4526798,2.226886,"Bar Ripoll"
41.4342183,2.2237,"BAR COLETA"
41.45253,2.249963,"Bar Versalles"
41.442228,2.233922,"Club Joventut Badalona | La Penya"
41.454762,2.2245279,"CIBERTECNO BLANES"
41.4532459,2.2493851,"Manuela"
41.442619,2.233262,"BAR LA LUNA"
41.4521438,2.2495679,"Restaurante Kebap House Badalona"
41.453234,2.229499,"BONA MASA"
41.4545332,2.2362503,"MEILA 2 - BAR"
41.4413672,2.2161769,"SA GRANGETA"
41.4579046,2.2413254,"BAR MERCADO"
41.4414929,2.2203892,"SI LO SE NO VENGO - BAR"
41.43964,2.22431,"CA LA NINA"
41.4444039,2.2342751,"FORN DEGUSTACIO ARIADNE"
41.448165,2.2466943,"Bar Tailai"
41.447867,2.25104,"Can Llaunes"
41.45341,2.22303,2 DE 2 - CERVECERIA"
41.455369,2.256399,"BAR LA FONT"
41.440815,2.219966,"OBDULIO - BAR"
41.449365,2.246051,"IGLU - BAR FRANKFURT"
41.4438717,2.2307704,"BAR B-STUBE"
41.440372,2.240937,"Stella Maris"
41.434701,2.215051,"Bar Julio"
41.454142,2.224248,"Bar Naia"
41.437539,2.234474,"BAR brisas de galicia"
41.461183,2.239355,"Bar Frankfurt La Tasqueta"
41.443928,2.240029,"Marbrava"
41.436905,2.235284,"Bar Restaurante López"
41.4425957,2.2420298,"Comestibles Martina"
41.4567486,2.2178445,"CLUB D'SKATEBOARD LOS PLANOS SKATEPLAZ"
41.437267,2.234665,"Restaurante Casaseba"
41.451516,2.232219,"Bar Sporting"
41.443483,2.238699,"Café Bar Gom & Dom"
41.4383977,2.2332183,"CAN JOAN"
41.439288,2.218715,"CHAPARRAL - BAR"
41.4355944,2.2250713,"MCDO. SAN ROQUE - BAR"
41.4542215,2.2246461,"La Flauta"
41.4390494,2.2280761,"BANANAS II - BAR"
41.4513029,2.2392871,"HOGAR DEL PENSIONISTA BAR"
41.442793,2.230097,"CASINO"
41.4502487,2.2308384,"LLOREDA - FRANKFURT"
41.441561,2.238901,"Bar Restaurante Euroameric"
41.4507039,2.2257253,"La Tasca"
41.461912,2.2401906,"MESON IBERIC"
41.4527452,2.2483967,"Restaurant Japonès WATAMI"
41.4608376,2.2371173,"LOCAL SOCIAL FUTBOL BUFALÀ"
41.4417991,2.2352003,"Restaurant xinès Shan Hai City"
41.449918,2.224431,"Granja San Francisco"
41.381347,2.180615,"MAS QUE TAPAS - BAR"
41.4417656,2.2192106,"SANTA FE - BAR"
41.4592528,2.2493367,"BAR CAN PRATS"
41.459382,2.23434,"La Tasqueta 2"
41.451648,2.252428,"Bar Carrilet"
41.451556,2.246532,"El Bola - Matches & Burgers"
41.448346,2.249635,"Restaurant Can Frai"
41.439288,2.218715,"Trocadero"
41.4384699,2.2310667,"FRANKFURT LA TORRE"
41.4303897,2.2208036,"ALIMENTACION"
41.432671,2.222321,"FOOD TRUCK ST. ROC"
41.4318066,2.2246614,"UNA ALTRA COSA - BAR"
41.4412947,2.2253377,"Bar la parada"
41.4358391,2.2219075,"Can Daura Cerveseria Cafeteria"
41.433827,2.221326,"Bar Granja Los Andes"
41.4472155,2.2249437,"OLVIDO - BAR"
41.4476938,2.2250795,"EL CERRO - BAR"
41.450813,2.223878,"VIVAS - ALIMENTACION"
41.4504305,2.2259852,"LINEO - BAR GRANJA"
41.4511269,2.22647,"CASA BLAS - BAR"
41.4464379,2.2484401,"BAR CELONA"
41.438275,2.2433795,"LA VERMOUTHERIA"
41.455067,2.224635,"El Raconet"
41.4474034,2.2306623,"BAR PARTICULAR"
41.45515,2.220252,"El Semaforo"
41.4496275,2.2526353,"SANTA LOLA"
41.447215,2.230289,"Bar Pepe"
41.4414719,2.2217643,"FREDURIA DE EDU"
41.453264,2.233724,"Leones Bar"
41.4411468,2.2309599,"Laser king"
41.450312,2.225018,"CASA PEPE"
41.455671,2.25734,"Escola Lola Anglada"
41.409017,2.178217,"BAR RESTAURANTE JUAN LI"
41.409017,2.178217,"PANDOK"
41.457422,2.25563,"Ajuntament de Badalona"
41.436944,2.22853,"ALIMENTACIÓN ANA (MDO ST ROC)"
41.439805,2.228196,"COMESTIBLES FERNANDEZ MIRANDA"
41.4340474,2.2368767,"WEI ZHI MIAN"
41.4400838,2.2315047,"BODEGA OLIVER"
41.4446115,2.2392597,"EL MAGATZEM DE VINS Y OLIS"
41.4448958,2.2233556,"Lajpal"
41.4423395,2.2340124,"SUPER MELLADO"
41.4334432,2.224915,"El Teu Pa"
41.4432147,2.2193373,"SUPERMERCAT"
41.409017,2.178217,"ALIMENTACIÓN FORN DE PA"
41.4409192,2.2428991,"Vermutería Casa Oliver"
41.4501313,2.2246468,"ROSTISSERÍA PIOLINDO 2"
41.4499586,2.2469177,"PANNUS BADALONA"
41.449984,2.250562,"A Vocados Badalona - Rest. Badalona"
41.46393,2.249217,"EVENTS TENIS BADALONA"
41.4535205,2.2352942,"SUPERMERCAT"
41.4415173,2.2315728,"El Pollastre Anglès"
41.446407,2.225422,"ALIMENTACIÓN FERNÁNDEZ"
41.4349234,2.2201137,"BAR MARTA"
41.441157,2.238418,"Catafal Forners"
41.439371,2.242634,"CATAFAL ESTRIBOR"
41.451943,2.252058,"CATAFAL PRIM"
41.454777,2.24981,"Catafal"
41.447409,2.24385,"CATAFAL ALFONS XII"
41.4557202,2.2573791,"Rostisseria El Piolindo 3 Canyadó  Esp"
41.45001,2.24719,"Capadocia"
41.4628331,2.248368,"The Little Moment"
41.4332981,2.2362833,"BACALLA; ANXOVES I CUINATS"
41.459243,2.2480607,"CA L'AVI MARSAL"
41.446764,2.232442,"CF SISTRELLS BAR"
41.450439,2.247084,"Club Tennis Taula Badalona"
41.438657,2.227051,"Bar Andevalo"
41.4572641,2.2597505,"CASAL DE GENT GRAN CANYADÓ"
41.439288,2.218715,"XURRERIA CUBA"
41.409017,2.178217,"KEBAB INN. MONTIGALA"
41.453415,2.251774,"La Sita Restaurant"
41.4577603,2.25996,"LOS INFANTES"
41.4396642,2.2322998,"RIO ANDARAX"
41.409017,2.178217,"ALIMENTACIO"
41.4578677,2.2204041,"Restaurant Blanc i Negre badalona"
41.449866,2.250972,"BARBAARBAR"
41.440917,2.222462,"WESTFALIA"
41.442544,2.232267,"PABELLON OLIMPICO DE BADALONA (EVENTS)"
41.438494,2.217549,"PAULA'S"
41.442573,2.224492,"Sweet dolç"
41.4471085,2.2208891,"Pizzería Kebab Factory"
41.475807,2.228558,"Natural Chic"
41.4377993,2.2266156,"BAR SHUN FENG"
41.437218,2.220098,"BAR MOKKA"
41.4521505,2.2303903,"BODEGA"
41.4619153,2.2483402,"ALIYAN MORERA SUPERMERCAT"
41.4454834,2.2345268,"CENTRE ESPORTIU PADDEL"
41.4492347,2.2455163,"ESTEBAN ALVAREZ FURORES"
41.4426727,2.2159581,"Kebab Bocateli"
41.4378767,2.2406009,"PADEL TOUR BADALONA"
41.442793,2.230097,"GELATIAMO MAGIC BADALONA"
41.4451953,2.2387267,"Forn De Pa Tot Croissant Croissanteria"
41.3753,2.1394,"XARCUTERIA (PARADA 23-24)"
41.4487328,2.2485151,"LA TIROLESSA"
41.4461111,2.242291,"Rest. Ca l'Olives Cuina menorquina"
41.4478368,2.2497799,"LA CHOLA"
41.464888,2.250801,"FORN DE PA"
41.447991,2.2221486,"ALIMENTACIÓN PANADERÍA"
41.447828,2.249839,"Pascuala Cuina Vegana"
41.4482447,2.2491862,"Bendita Trumfa"
41.4383414,2.2396764,"ZUVISA;S.L."
41.4414746,2.2376526,"BAR RESTAURANTE familia"
41.451756,2.2491536,"NERO RESTAURANT"
41.4458648,2.2192914,"Café Marina"
41.465462,2.237921,"Fleca Gisbert"
41.4442865,2.2416179,"ASSOCIACIÓ CULTURAL LA FESTA DEL DIBUI"
41.4583847,2.2465478,"Petanca La Morera"
41.4455252,2.2285532,"FESTES BADALONA (LA TEVA BARRA)"
41.457004,2.258428,"Bar Cervecería Sant Just"
41.4551448,2.2344571,"CAN CASTELL"
41.453234,2.251174,"Restaurant Il Metro"
41.4503427,2.2480206,"Bar Bahia"
41.4550125,2.2252343,"La Fleca de Montigalà"
41.4486599,2.23312,"Frutas Y Verduras BALTÀ E HIJO"
41.4571525,2.2426131,"EL SECRET DE LA LLUNA"
41.409017,2.178217,"FESTES PLATJA DELS PESCADORS (LA TEVA BA"
41.439539,2.215438,"XARCUTERIA"
41.4596914,2.2484342,"9 transport"
41.453635,2.222323,"BAR JULIOL"
41.4403884,2.2453722,"TAKUARA"
41.4530286,2.2565581,"RUGBY CLUB BADALONA"
41.4514726,2.2287452,"Camp de Futbol Lloreda"
41.4592701,2.2474049,"XURRERÍA KIC"
41.4449221,2.2260977,"MINI SUPER"
41.4492719,2.2463191,"FORN BOLLERÍA"
41.452103,2.215759,"BAR LA ALMU"
41.445233,2.2406795,"El Bon Cigronet"
41.4365222,2.2239691,"Escola young talent"
41.439739,2.228269,"Granier"
41.452241,2.246224,"DALT DE LA VILA"
41.457225,2.219268,"CASA MONTI"
41.449039,2.245223,"CATAFAL BOULANGUERIE"
41.4423128,2.223639,"Entre Tapes La Salud"
41.456458,2.2599648,"RUGBY CLUB BADALONA"
41.440256,2.2356758,"Pizzeria Etna"
41.4584911,2.2553598,"Eurolotes SA  Lotes y cestas de Navida"
41.4484241,2.2507221,"JOSEP PUJALS LLOPART"
41.438998,2.217761,"CARLOS BARRONES TOURIÑO"
41.4501525,2.2484523,"Enològic"
41.4343419,2.2184945,"CALYPSO COFFE"
41.452133,2.229499,"CLUB PETANCA NUEVA BADALONA"
41.4675375,2.2515969,"CD Pomar Badalona"
41.4507131,2.2228404,"BUITRES M. C"
41.4366991,2.2305994,"NOOR ALIMENTACION"
41.4375593,2.2264621,"GRANJA CAFETERIA MORENA"
41.4808576,2.2223261,"CAL DIMONI"
41.453635,2.222323,"Garito 24"
41.440744,2.222513,"SANT MORI BAR CAFETERÍA"
41.455499,2.257507,"Foodlona by Miquel Antoja"
41.4411755,2.2257654,"ALIMENTACION"
41.4611167,2.2520391,"Original Catering"
41.451217,2.246603,"CA LA NONNA"
41.450081,2.248587,"Metropolitan Badalona"
41.4361621,2.2299368,"Cointegra"
41.4530153,2.2215943,"Forn de Pa Otger"
41.4526393,2.2295013,"FORN DE PA"
41.4441029,2.2477124,"CEMBDN"
41.4300121,2.219945,"Rostisseria ca eva"
41.4754259,2.2478981,"MAS VESTITS"
41.454365,2.225781,"Frankfurt BBT2+"
41.4472619,2.2423057,"LEX4-BAR RESTAURANTE"
41.44549,2.23448,"RESTAURANT SANT ANASTASI"
41.4408199,2.2355278,"D'TAPAS"
41.4581239,2.2642382,"CONCERT REEGATTON"
41.446104,2.2408323,"Nagomi"
41.441786,2.216882,"LLAR JUBILATS DE LLEFIÁ"
41.437666,2.240256,"Bar Cafeteria Embarcadero"
41.4409529,2.2454844,"BDSL"
41.454882,2.23742,"CLUB DE FUTBOL BADALONA"
41.455369,2.256399,"FESTA CORREBARS"
41.553465084111,2.226247152325,"AMPA PAU PICASSO"
41.4417329,2.2289807,"CONCERT LA ROTLLANA"
41.4517997,2.2464844,"CONSELL DE LA JOVENTUD DE BADALONA"
41.4455022,2.2405733,"Casal Antoni Sala i Pont"
41.451367,2.252251,"Margenat"
41.453691,2.235199,"La Taberna"
41.409017,2.178217,"CATAFAL FORN DE PA"
41.444704,2.240444,"CATAFAL"
41.4550336,2.2231066,"ATECA"
41.4477941,2.2492883,"Gastroteca Espai Classual"
41.4508629,2.2483931,"LA TRIBU"
41.441391,2.226546,"REY DE ALI BABA(LA SALUT)"
41.444699,2.242819,"CATAFAL-PANADERIA DEGUSTACIÓN"
41.444704,2.240444,"CATAFAL-PANADERIA DEGUSTACIÓN"
41.439371,2.242634,"Catafal Forners"
41.44911,2.245386,"Forn catafal"
41.443635,2.247193,"Residencia matacas"
41.4511089,2.2481871,"Maristes Champagnat Badalona"
41.4552687,2.2583902,"Trastevere Cafeteria"
41.4698171,2.2480554,"VALKIRIA EVENTS"
41.4591818,2.2489304,"El Fornet de la Lluïsa"
41.43456,2.215269,"FORN DE PA CAFETERÍA EVAS"
41.440429,2.236963,"Bingo Badalona"
41.442681,2.223233,"La Salut"
41.450635,2.2530666,"Associacio Bicanna"
41.4607078,2.2496603,"3 DE NOU PUNT DE SET GUINGUETA PISTAS"
41.4694128,2.2482945,"Quality Dance Studio"
41.4383604,2.2203506,"LA QUE HEMOS LIADO"
41.43905,2.220586,"TU DULCE MOMENTO CAFETERIA"
41.4595574,2.2407487,"Laser Joc - Laser Tag"
41.4551303,2.2248294,"SAMBA BAR"
41.4523535,2.2434921,"FORN NTRA. SRA. LOURDES"
41.440505,2.21674,"Mar de Trigo"
41.4430603,2.2367431,"JOC 2-BAR"
41.4399112,2.2247802,"Casal Cívic i Comunitari Badalona Juan"
41.450717,2.230057,"R-18"
41.450717,2.230057,"R-46"
41.450717,2.230057,"R-48"
41.462437,2.256232,"BCIN CENTRE NEGOCIS"
41.44847,2.2490899,"Goiko"
41.441066,2.226783,"BONJOUR CAFETERÍA"
41.432316,2.230163,"Bar Restaurante La Illa"
41.4418284,2.2387468,"LES TERMES 2 -BAR -REST"
41.4426621,2.2184728,"Llefià Supermarket"
41.445951,2.248541,"Tabacs Exp. nº 4 Badalona"
41.4424984,2.2343908,"Hore-K Asocia2"
41.4425378,2.2364406,"WELCOME  PARK"
41.440265,2.242128,"Pizzeria Notris"
41.451739,2.255458,"MEXCLAT"
41.4332812,2.2262764,"LA JEFA"
41.4453191,2.2414405,"BADATERRA"
41.453348,2.2370306,"PIZZERÍA OASIS"
41.4471838,2.2487308,"BONROLLO"
41.4562413,2.249052,"El Badiu"
41.44763,2.248996,"Restaurant Pizzeria Miranapoli"
41.452656,2.254011,"La Cuineta d'en Persi"
41.455404,2.256399,"CarosOne La Pizza"
41.45924,2.23596,"BLUSQUARE"
41.4486371,2.2482306,"Enrique Tomás CERRADO PERMANENTEMENTE"
41.446331,2.249175,"RESTAURANT USMANIA"
41.459369,2.228328,"REPARTIDOR"
41.459862,2.227534,"WILSON DANIEL RAMIREZ BRITO"
41.460607,2.227663,"VENTAS VILADRAU"
41.453013,2.2221954,"Forn de Pa 180"
41.447829,2.249232,"El Muji"
41.448867,2.2377758,"Gestoría Montserrat"
41.459862,2.227534,"LLORENÃ‡ JUAN-DE-DIOS PEREZ"
41.436998,2.23344,"Terminales Y Remaches S A"
41.434517,2.216475,"BODY GYM 2"
41.4507747,2.2448844,"Pastisseria La Vila"
41.446001,2.219992,"ALFREDO ANGELATS GALVÁN"
41.438806,2.214821,"KM BURGUER-BAR"
41.446685,2.245109,"Gelateria Canals"
41.447073,2.250233,"MINIMARKET"
41.4512615,2.2441796,"Bar Centre"
41.4559557,2.2576821,"PABEL"
41.455793,2.260142,"New Pelda"
41.4402013,2.2448765,"Rest. Marisqueria La Verge del Roci"
41.443179,2.21927,"FORN NTRA SRA DE LOURDES"
41.4432474,2.2179802,"AAVV LLEFIA ALTO"
41.434335,2.236879,"Casadevall"
41.45498,2.25778,"Gelateria Piolindo"
41.458537,2.242277,"Can Pic's"
41.45221,2.223256,"CARRUSEL"
41.445347,2.239307,"ESPANS"
41.437666,2.240256,"Bar Restaurant Voramar"
41.4552213,2.2551351,"NEW AROMA ISTAMBUL"
41.442726,2.23558,"CATAFAL"
41.448175,2.247232,"Arnus 50"
41.4477267,2.2467945,"Pantagruel"
41.4585513,2.2220512,"Enrique Tomás - Sede Central"
41.4386383,2.2174474,"TODO LO BUENO"
41.4599516,2.2275604,"RODRIGO ALEXI CHAMORRO CAÑETE"
41.4509396,2.2534814,"Pam i Pipa"
41.4415885,2.2387181,"FOOD TRUCK"
41.4489388,2.2464449,"Col·legi Sant Andreu Infantil  Primàri"
41.4476834,2.2496935,"WALLE WONDERS"
41.4547147,2.2327317,"Institut Escola Llibertat"
41.4423699,2.2278407,"Fàbrica de Joguines"
41.4531718,2.2205424,"BAR AXIA"
41.4614136,2.2482251,"CAN FARINES"
41.439995,2.2377,"Catafal forners"
41.4500265,2.2533345,2 Portes III"
41.448118,2.244828,"YM SPAIN SERVIFOOD"
41.470126,2.249506,"CASTELL DE GODMAR"
41.4403517,2.2355159,"CENTRIC"
41.448118,2.241499,"Capital Burger"
41.4509253,2.2516962,"VINS TEIXIDÓ"
41.4458302,2.2405148,"Licoreria Cornet"
41.4370128,2.2427714,"Restaurant Sant Anastasi"
41.461652,2.2550351,"Espinaler"
41.44444,2.239333,"El Magatzem de Vins i olis"
41.458147,2.255137,"Eurolotes S.A. - Lotes y cestas de Navid"
41.4593654,2.262047,"RTE PANORAMIC"
41.4342119,2.241101,"Rte marina palace"
41.434435,2.231149,"La Bodega Vigol Royal S.L."
41.473579,2.235203,"Talos Canyet"
41.4389266,2.243951,"Talos Playa"
41.4494729,2.2464978,"Restaurante Fígaro"
41.437666,2.240256,"EL TRESOR"
41.4398944,2.236745,"SUSHI RA"
41.439011,2.240277,"Pa del Canal"
41.456329,2.260422,"Taberna La Pecadora"
41.442465,2.217405,"COLMADO ESPADA PARADA 32"
41.443641,2.247229,"Mono Beach"
41.4495524,2.2338231,"Lo de Lucca"
41.4518374,2.2495467,"FRANKFURT LAYRET"
41.4517207,2.2494275,"La parada fruiteria de proximitat"
41.4522013,2.2517676,"ALNAZIR SUPERMERCAT"
41.4489234,2.2343714,"FRUTERÍA LA PERA"
41.44404,2.2305799,"FYDOM"
41.4399481,2.2346965,"Bar La flor del café"
41.44162,2.218382,"GRANJA ICEBERG"
41.45726,2.2381658,"RIO MARKETING S.L"
41.4473633,2.2494695,"Cevicheria La Barraca"
41.4408786,2.2453795,"CARUZZO RESTAURANTE"
41.4466421,2.2505367,"ENOLOGIC EVENTS"
41.4413729,2.2214819,"Lezzet pizza kebab Restaurante"
41.4521389,2.2304043,"PETANCA NOVA LLOREDA"
41.454922,2.247688,"FORN DE PA 104"
41.4353958,2.2187299,"BAR BUENA SUERTE"
41.4464472,2.2488954,"KOPEPOKE"
41.4415483,2.2187826,"BAR LAURORA"
41.4335756,2.2310158,"Bar restaurante pho"
41.445098,2.24705,"CASTELLERS BADALONA"
41.438493,2.217973,"SOLUTION Bar Shisha"
41.457517,2.224383,"REPARTIDORES"
41.448002,2.226082,"FRANCISCO JOSE SANCHEZ ORTEGA"
41.434039,2.218343,"Baetulo 561"
41.4576379,2.2425972,"BAR LOS ZURDOS"
41.450439,2.247084,"CORAL BADALONENSE"
41.437235,2.220126,"EL RACO DE YEMANA"
41.4518592,2.2492825,"CAN MARTRI 2"
41.449458,2.229899,"GIURSIMRAN"
41.4492201,2.2334905,"La Cuineta De La Mama"
41.4509634,2.2517372,"BODEGA RAMONA"
41.4577942,2.2424758,"BAR LA PARADETA"
41.46972,2.242919,"CAFETERÍA DEL TANATORIO"
41.451929,2.249363,"LA MARE DEL TANO"
41.4304746,2.219476,"EL NOSTRE PA"
41.4306624,2.219181,"BOCA-MIX"
41.443647,2.241397,"BUHARDILLA"
41.4332657,2.2248727,"CDO.PORTO"
41.4444591,2.2464106,"CDO.MARTA"
41.4502389,2.2448327,"PANADERÍA LUCAS"
41.4428563,2.2406239,"La Parada sushi bar restaurante"
41.4500182,2.2471199,"Espan's Badalona"
41.4447393,2.2380425,"Estació de Servei Fitó"
41.4464252,2.2485055,"ALMENTACIÓN CHEN"
41.4387324,2.2258525,"FORN DE PA SEMILLAS"
41.44352,2.23875,"DAKAR"
41.4442881,2.2358491,"SUPERMERKAT"
41.433906,2.233493,"Bar Restaurante Pipa 3"
41.438138,2.243383,"PROXIM"
41.436964,2.230283,"AA.VV.SANT JAUME"
41.4575782,2.2612891,"SARAU"
41.4771483,2.2515055,"Club Esportiu Mas Ram"
41.4548159,2.2228908,"BRUNETXE"
41.4583762,2.2424796,"Mercat de Bufalà"
41.4559594,2.2274168,"Braseria Ibèrica Camp de Tir"
41.4595631,2.2378068,"Cafetería Silvia"
41.445473,2.248556,"SOTA VENT"
41.4392908,2.2243244,"La Llar del Dolç"
41.409017,2.178217,"BAR BOCATELI - CIRCUMBALACIO-"
41.4396395,2.2295177,"TIENDA 55-PALACIO DE GOLOSINAS"
41.43905,2.220586,"FRUTAS Y VERDURAS NARANJO"
41.4402472,2.2376201,"ALIMENTACION GUIFRE"
41.4447483,2.234147,"Súper barat"
41.451244,2.252868,"La Cala de Gineto"
41.451097,2.223008,"SUPERMERCAT KASHMIR"
41.4584475,2.2426542,"Alimentacion Bufala"
41.4397251,2.215337,"ALIMENTACION BUSAL"
41.442701,2.233147,"Rostisseria Ameli"
41.4505674,2.2447052,"Cafeteria centre"
41.4543757,2.228336,"CF BADALONA NUEVO"
41.430799,2.232526,"Olmos Restaurant"
41.460182,2.236695,"Camp Futbol Bufalà"
41.4715925,2.2570031,"Restaurant Campo de Tiro"
41.442506,2.224492,"SANT ANASTASI"
41.442506,2.224492,"FUSION GRILL"
41.442506,2.224492,"LA TASQUETA DEL PORT"
41.4479404,2.2506964,"Caño 14"
41.4479026,2.2506315,"Casa Ribeiro"
41.4574334,2.2621615,"PÀDEL INDOOR BADALONA"
41.4506753,2.2483174,"Vivari 2012 S C P"
41.4527011,2.249441,"Ovvio"
41.433216,2.223934,"HALAL CARNICERIA"
41.4384122,2.2435233,"Pollastre a ast"
41.446383,2.2503007,"Club Natació Badalona"
41.454307,2.214013,"XURRERIA"
41.449439,2.246031,"SENSE CAFETERÍA"
41.447708,2.242498,"Balsamic Gastrobar"
41.4499277,2.2336582,"El Pa de Lloreda"
41.440013,2.221557,"Max Bar"
41.439094,2.216963,"ALIMENTACIÓN"
41.4465126,2.249356,"Dimonidolç"
41.4585752,2.2438643,"Los Jabuguitos"
41.447185,2.250179,"Charlotte's Grill"
41.440039,2.242573,"Excusas Gastrotasca"
41.447463,2.250714,"TR3S TAULES"
41.442334,2.22236,"BAR CLAUDIA"
41.437712,2.231142,"Bar Júpiter"
41.452084,2.223436,"PANADERÍA DEGUSTACIÓN"
41.4505444,2.2426995,"CERO 8 NUEVE 12"
41.4559616,2.2565849,"Can pics"
41.450357,2.233404,"COFFESHOP"
41.4588465,2.2418469,"BODEGA CAMPICS"
41.458211,2.243276,"Forn de Pa 104"
41.4471099,2.2483698,"Restaurant Ca l'Arqué"
41.447851,2.249874,"Neruca"
41.4610536,2.2475588,"Canpic's Casa De Menjars"
41.456912,2.258605,"EL RACO DE CANYADO"
41.440516,2.24534,"Can Pizza Badalona"
41.439456,2.244613,"Brisa Sin Prisa"
41.443928,2.240029,"TAKUARA"
41.439456,2.244613,"EL SEITÓ"
41.438246,2.243437,"CHIRINGUITO WAYRA"
41.445595,2.243724,"Bufs de farina"
41.4462618,2.234382,"XIRINGUITO PARADIS"
41.4511688,2.2549088,"AUTENTIK CLUB"
41.449315,2.246193,"FARNDULA"
41.448405,2.247011,"La Faràndula Restaurant"
41.451315,2.248932,"Can Soler Layret"
41.458045,2.243396,"AAVV BUFALÁ"
41.4410536,2.2223805,"Petit Supermercat"
41.447907,2.251085,"La Guingueta de la Rambla"
41.45075,2.252061,"Lolín Café Gastrobar"
41.443994,2.247583,"L’Estupendu"
41.4415777,2.2435609,2 HOOKER"
41.4480785,2.2507862,"365 CAFETERÍA"
41.44752,2.233427,"MEI LA"
41.443641,2.247229,"The Sand"
41.442155,2.223679,"El Coral"
41.45471,2.227144,"Coca Gourmet"
41.456517,2.257967,"CLUB PETANCA CANYADO"
41.444386,2.231645,"PANS MAGIC BADALONA C.C.MAGIC BADALONA"
41.4527284,2.2373724,"BAR KING"
41.4557507,2.220392,"BAR MONTBLANC"
41.451602,2.223525,"BAR TASQUETA LISZT"
41.4536159,2.2184799,"BAR CAFETERIA WAN YUAN"
41.4517932,2.2251523,"CA LA PAQUI"
41.4534866,2.2186868,"Doner Kebab Turc pizzería"
41.4515215,2.2216565,"BAR MOZART"
41.453084,2.219614,"BAR CAFETERIA MOZART"
41.456458,2.220513,"Jomi Restaurant"
41.452617,2.225116,"BAR LOS AMIGOS HERMANOS NAVAS"
41.4507318,2.224158,"Bar La Farola"
41.4560158,2.2190496,"Cafeteria Nova & Gent"
41.4519419,2.2231767,"BAR PACO"
41.453234,2.229499,"A.A.V.V LA PAZ"
41.449777,2.223824,"BAR EN EL FONDO"
41.4532853,2.2265598,"FRANKFURT FLAPPER'S"
41.4525381,2.2254998,"Bar Lloreda"
41.4517885,2.223023,"BAR TYPA"
41.4532169,2.2217356,"Rancho Tipicos (Hondureño)"
41.442573,2.224492,"BAR LEMOS 180ºC"
41.4516952,2.2251905,"BAR MONTIGALA"
41.453323,2.220436,"BOLI-BAR"
41.4505281,2.2223024,"ASOCIACION ROCIERA DE LAS ARENAS"
41.4450109,2.2183207,"Bar circunvalacion"
41.4601546,2.2375686,"OSCAR VERA BORJA"
41.4558439,2.2193928,"Ecija"
41.438178,2.21682,"Supermercados Teodosio"
41.441729,2.215101,"Bar el Pesca"
41.4447321,2.2182131,"Bar Chiqui"
41.4377216,2.2230294,"CASA DE UTRERA"
41.45272,2.225432,"HERMANDA ROCIERA BADALONA"
41.443896,2.224331,"COMERCIAL QUERCUMAR"
41.4338883,2.220662,"ASSO. cultural andalusa Casa de Còr"
41.450678,2.224475,"EURO DONER PIZZERIA"
41.4509473,2.2220724,"BAR SUEÑOS"
41.4541112,2.2339932,"Escola Joan Llongueras"
41.437137,2.22203,"HERM. ROC. LA ESPERANZA"
41.4564889,2.2343512,"C.C.A. CASA DE HUELVA BADALONA"
41.4497273,2.2269096,"Escola Pau Picasso"
41.451675,2.2228309,"BAR LACRYS"
41.450631,2.24676,"Mexicali"
41.434778,2.2202655,"DESPACITO"
41.455369,2.256399,"Can Arnau"
41.440715,2.243089,"ASOCIACION FLAMENCO VIVO"
41.448191,2.24954,"DOMUS VITA (ESPAI DE VIDA)"
41.4356953,2.2215683,"Crispan"
41.4513067,2.249177,"FORN DEGUSTACIÓ GRANIER"
41.45341,2.22303,"LA TABERNA GALLEGA"
41.4475933,2.2427143,"REST. PITA PITA DÖNNER"
41.442067,2.215974,"BELLAVISTA"
41.4486236,2.2381109,"EL LLIMONER"
41.4347019,2.2191758,"Latinos bar reencuentro"
41.4452449,2.2206585,"BAR GROOVY"
41.44773,2.250888,"La Moca"
41.441364,2.223921,"VELVET"
41.453258,2.237128,"PASTELERIA DULCINEA"
41.4501587,2.2294316,"Granier"
41.448232,2.239662,"DONER KEBAB CATALUNYA"
41.436924,2.218893,"PASTISSERIA CAFETERIA AIDA"
41.451684,2.2522204,"Restaurant MADISON"
41.4591467,2.2610924,"CLIMBAT"
41.4474632,2.2384579,"CASTELLERS DE BADALONA"
41.441074,2.221647,"BRASERÍA LA SALUD"
41.452593,2.236479,"El Bodeguer  Hamburgueseria Cerveseria"
41.435858,2.229602,"CAFETERIA NINA"
41.4454118,2.237407,"RANK TEAM"
41.43964,2.22431,"BAR LA CANTONADA"
41.4516824,2.2386642,"Kebab Shani"
41.4432939,2.2192581,"ASOCIACIÓ JUVENIL ROTLLANA"
41.4549601,2.2544519,"Pizza Rosa"
41.450397,2.247673,"Yuki"
41.455067,2.224635,"CASA RUIZ"
41.438246,2.243437,"LA  VERMUTERIA DE BDN"
41.4573775,2.2291586,"Natural Blend"
41.4508862,2.2487032,"HAPPY FOOD TRUCKS"
41.4421023,2.2242401,"BAR MARKET"
41.436982,2.232742,"A8 bar"
41.4360003,2.2182682,"BAR FAMILIAR"
41.4526323,2.2217708,"Restaurante Hong Fu II"
41.44934,2.230024,"LA CEPA DEL BIERZO"
41.449711,2.247573,"ENRIQUE TOMAS- BADALONA-"
41.4615146,2.2540869,"KRISALIA CATERING"
41.437736,2.218145,"Granja sant Jordi"
41.4331246,2.216807,"Frankfurt's Ibèric"
41.44017,2.21818,"FORN NTRA. SRA. LOURDES"
41.442526,2.217905,"FORN NTRA. SRA. LOURDES"
41.447835,2.242882,"FORN NTRA. SRA. LOURDES"
41.439296,2.228761,"FORN NTRA. SRA. LOURDES"
41.437529,2.218487,"El Nostre Pa"
41.440424,2.216596,"FORN NTRA. SRA. LOURDES"
41.438988,2.220377,"FORN NTRA. SRA. LOURDES"
41.434421,2.217053,"FORN NTRA. SRA. LOURDES"
41.4417274,2.2223419,"BAR JUNIOR"
41.440851,2.222143,"Gran mundo bar"
41.4418956,2.2261457,"FORN DE PA NTRA SRA DE LOURDES"
41.4682266,2.246757,"GLOBALVEN VENDING"
41.448225,2.249591,"Butifarring"
41.4451014,2.2385355,"Jomer"
41.443901,2.219249,"PICA TAPA"
41.460722,2.241114,"Bon Cafè, Bon Pa 168"
41.4439209,2.2304935,"Tokio Ramen"
41.449185,2.2522684,"LA GAVINA"
41.4475609,2.2499228,"Bocateria Lunfardo"
41.450081,2.248587,"Metropolitan Badalona"
41.4497245,2.252987,"La Tortuga"
41.443928,2.240029,"El pati"
41.4506335,2.2535185,"Paco-Mer"
41.4511688,2.2549088,"DONZELLA"
41.449669,2.2511896,"RESTAURANT CA L'ARQUE"
41.4537743,2.2583859,"CLUB NAUTIC BETULO"
41.4427261,2.2300216,"Cafeteria fargi"
41.4358134,2.2165634,"Agrupació Cultural Agarimos"
41.441975,2.2201703,"TU DIRAS"
41.45696,2.233394,"Centre Sociosanitari El Carme"
41.4373699,2.2343235,"FR.VENECIA"
41.437371,2.2342659,"GRANJA VIENA"
41.4518281,2.2461906,"Restaurant La Costa Badalona"
41.445271,2.240869,"Restaurant La Badalonesa"
41.4506174,2.2446858,"LELYS"
41.432676,2.23663,"Restaurant Gran Vaixell"
41.445489,2.243398,"Restaurant la Llar de l'All i Oli"
41.458478,2.262957,"Boting Jumping Park Badalona"
41.4383415,2.2433648,"LA PAQUITA"
41.4342234,2.2253032,"PARTICULAR BODA GITANA"
41.440803,2.2271587,"VIVARI"
41.4536866,2.2223125,"VIDALINA"
41.435113,2.220358,"TAVERNA GALLEGA"
41.45158,2.252335,2 MÉS 1 BAR CAFETERÍA"
41.449293,2.2306236,"O' HANNA CAFETERÍA"
41.478283,2.231747,"TALOS CANYET"
41.4519413,2.2523024,"ROSTISSERÍA PRIM"
41.4564929,2.2586339,"PIM PAM"
41.453234,2.229499,"La Trobada"
41.4454729,2.2328597,"KIOSCO MAGIC"
41.4403754,2.2436822,"CROQUETERIA GOURMET BCN"
41.448604,2.247645,"Muten town"
41.4451844,2.2245052,"Fleca Gisbert"
41.4599271,2.233682,"CEIP Les Ciències"
41.451479,"1.962589,"AUPAMUSIC"
41.435858,2.229602,"HERMANDAD ROCIERA BADALONA"
41.4431729,2.2448277,"La sardineta Badalona"
41.4577187,2.2562168,"SERVICES BTM CERVECERA S.L"
41.455369,2.256399,"SANTA LOLA PARK"
41.4389,2.244156,"Iberic fusion"
41.464849,2.241736,"Loladas"
41.445657,2.24526,"Club Escacs Sant Josep de Badalona"
41.43874,2.21721,"PASTELERIA RIN"
41.442465,2.217405,"BAR CAFETERIA MERCAT LLEFIA"
41.434701,2.215051,"LA GIRALDA"
41.4518975,2.2233443,"El Escondrijo"
41.4500692,2.2359477,"AMBULANTE"
41.434513,2.2177605,"BDN Pàdel Indoor"
41.4594871,2.2418271,"Forn de pa 104 Degustació"
41.4459919,2.2383052,"Forn Marena"
41.4406705,2.2359635,"Gran Mam"
41.4421982,2.2435139,"Fruites i Verdures LiSi"
41.448348,2.249056,"RESTAURANTE FRASCHETTA"
41.4426525,2.2372841,"LLAR PERSONES SORDES DE BDN"
41.4376979,2.2248011,"Snack Bar Masnou"
41.4435946,2.2358036,"RESTAURANTE FAMILIAR"
41.4484272,2.2465498,"ESTRAGON"
41.433425,2.230978,"BON CASH"
41.448315,2.249244,"PENYA BLAUGRANA DE BADALONA"
41.449601,2.232366,"L'esquineta"
41.4449759,2.2394549,"BAR ROSA"
41.436877,2.233473,"RESTAURANTE PINILLA 2"
41.4415885,2.2387181,"DE PASO FOOD TRACK"
41.436013,2.215955,"Bar Langui"
41.45873,2.22171,"ENRIQUE TOMAS ESCUELA"
41.437666,2.240256,"RESTAURANTE LUNA"
41.4460099,2.2422433,"VITAL"
41.43803,2.242233,"Hotel Marina Badalona"
41.4428441,2.2301386,"Shokolatt"
41.450532,2.248109,"COMISSIO DE FESTES BADALONA"
41.439569,2.216333,"MAX 3"
41.442793,2.230097,"COFFE&COMPANY MAGIC"
41.467011,2.248721,"LA SONRISA DE DANIELA ( EVENTOS)"
41.438246,2.243437,"GRANIER"
41.43909,2.232614,"Tamoil"
41.451711,2.246565,"Fundacio´ Badalona Contra el Ca`ncer"
41.4393119,2.2302447,"SHAN GEE"
41.4320667,2.2194409,"Ecuapan"
41.441983,2.234305,"FOOD DELIVERYS BRANDS"
41.448823,2.246095,"Escola d'Educació Especial Llevant"
41.454941,2.237781,"Sorli"
41.435755,2.228915,"BAR JUAN LI 2"
41.461539,2.252368,"RBF GALICIA"
41.460948,2.228272,"RIC RIVEROLA, JUAN JOSE"
41.448761,2.242234,"El Escondrijo"
41.436485,2.228874,"PESCA SALADA JOAQUIM"
41.44137,2.234793,"SUPERMERCAT GORG"
41.449918,2.2397154,"CUMBE FARFAN, JUAN EUGENIO"
41.459903,2.247677,"TAKE AWAY CAPRITX"
41.459903,2.247677,"TAKE AWAY CAPRITX"
41.459903,2.247677,"TAKE AWAY CAPRITX"
41.454465,2.248866,"TANDEM PROJECTS"
41.459475,2.2420511,"BAR CANTONADA"
41.4422152,2.2380171,"SERVIVENDING"
41.4515854,2.2465378,"El Bola - Matches & Burgers"
41.4369862,2.2273982,"ALIMENTACIÓN MAR"
41.4391132,2.2339356,"JOSÈ OQUENDO PALOMARES"
41.4353912,2.2204587,"bar-imperial"
41.46972,2.242919,"RESIDENCIA CAN RUTI"
41.4562999,2.2263782,"MOTOVOLTA"
41.4410522,2.2165904,"EL SUPER DEL ESTANCO S.L."
41.4491085,2.2476841,"THE WALL TATOO"
41.444247,2.243485,"CHIPBUTTY"
41.457517,2.224383,"Cocktailsperquesi"
41.4700396,2.2505381,"FESTA POMAR"
41.4460714,2.2441081,"CAN FARINES"
41.44987039999999,2.2512341,"IKKI HARU"
41.4348376,2.2155994,"BAR BON DIA"
41.4325666,2.2337975,"Rest Bareste"
41.4493395,2.2428284,"FUNDACION PROA(PRO ACTIVA OPEN ARMS)"
41.4461537,2.2356975,"BAR SABOR UNICO"
41.4491766,2.2413891,"KNEM"
41.4314271,2.2341739,"REST LAO XI GUAN"
41.4396953,2.219106500000001,"FRANKFURT EUROPA"
41.4347535,2.2209392,"Bodega San roque"
41.46009249999999,2.2277136,"ALEXIS CHAMORRO"
41.4566269,2.259156,"FRANKFURT FAMILIA"
41.4372232,2.2386917,"Frankfurt Baetulo II"
41.435418099,2.2252333,"RESIDENCIA GENT GRAN SANT ROC"
41.43541809999999,2.2252333,"RESIDENCIA GENT GRAN SANT ROC"
41.44105339999999,2.2269498,"Pizzeria Salut"
41.43913329999999,2.2357885,"LA CATA"
41.452261,2.2515837,"TASTY FAST FOOD"